country_name;Year;GDP;country_name.1;latitude;longitude;country;state
Afghanistan;1960;537777811.1;Afghanistan;25.2333938;55.174389025091465;AE;Dubai
Albania;1960;;Albania;5.7587654;-73.9151617;CO;Santander
Algeria;1960;2723615451.3;Algiers;36.7753606;3.0601882;DZ;Algiers
Andorra;1960;;Andorra la Vella;42.5069391;1.5212467;AD;
Angola;1960;;Angola;41.634874;-84.99928;US;Indiana
Argentina;1960;;Argentina;27.0854542;-109.1412408;MX;Sonora
Armenia;1960;;Armenia;4.536307;-75.6723751;CO;Quindío
Aruba;1960;;Aruba;12.51756625;-69.98186415210564;NL;
Australia;1960;18606562977.1;Australia;-31.95260295;152.55512735272188;AU;New South Wales
Austria;1960;6592693841.2;Austria;25.22539605;55.16431379427327;AE;Dubai
Azerbaijan;1960;;Azerbaijan;25.23108035;55.17027266614927;AE;Dubai
Bahamas, The;1960;169803921.6;Lucayan Archipelago;26.6613931;-78.26835346979033;BS;
Bahrain;1960;;Bahrain Island;26.0280409;50.55316820508136;BH;Southern Governorate
Bangladesh;1960;4274894083.3;Bangladesh;-0.2864982;36.0514231;KE;Nakuru
Barbados;1960;;Barbados;13.1899463;-59.559215109754064;BB;
Belarus;1960;;Беларусь;54.3836054;30.4054004;BY;Vitsebsk Region
Belgium;1960;11658722591.0;Belgium;40.0620915;-87.6392353;US;Illinois
Belize;1960;28072478.1;Belize City;17.5000543;-88.2003115;BZ;Belize District
Benin;1960;226195578.4;Benin City;6.3330586;5.6221058;NG;Edo State
Bermuda;1960;84466652.6;Bermuda;32.3018217;-64.7603583;BM;
Bhutan;1960;;bhutan;33.0204804;75.6458366;IN;Jammu and Kashmir
Bolivia;1960;373250000.0;Bolivia;34.0676715;-78.1483283;US;North Carolina
Botswana;1960;30411413.7;Botswana;25.21468695;55.18137698902848;AE;Dubai
Brazil;1960;;Brazil;39.523652;-87.1250154;US;Indiana
Bulgaria;1960;;Bulgaria;44.1141209;12.32615;IT;Emilia-Romagna
Burkina Faso;1960;330442815.8;Family Savadogo;13.4329296;-1.9956277265699776;BF;
Cabo Verde;1960;;Cabo Verde;-21.4743338;-46.3964995;BR;Minas Gerais
Cambodia;1960;637142865.7;Cambodia Town;42.6379684;-71.3213616;US;Massachusetts
Canada;1960;40461721692.6;Cañada;38.6752399;-0.8099623;ES;Valencian Community
Cayman Islands;1960;;Cayman Islands;19.3298691;-81.17122907994889;KY;
Central African Republic;1960;112155598.5;Central African Republic;25.2183959;55.17523857621538;AE;Dubai
Chad;1960;313582728.1;chad;32.7600402;76.0706663;IN;Himachal Pradesh
Channel Islands;1960;;Channel Islands;33.96579515;-120.09189711105296;US;California
Chile;1960;4110000000.0;Chile;7.308692;-61.8478915;VE;Bolivar State
China;1960;59716249311.0;Guangzhou City;23.1301964;113.2592945;CN;Guangdong Province
Colombia;1960;4031152976.6;Colômbia;-20.1774291;-48.6872822;BR;São Paulo
Comoros;1960;;Cômoros;40.1132313;-8.2614827;PT;
Congo, Dem. Rep.;1960;;Congo;-4.3983689;15.403578174981702;CD;Kinshasa
Congo, Rep.;1960;131731862.8;Congo;-4.3983689;15.403578174981702;CD;Kinshasa
Costa Rica;1960;507513830.0;San José;9.9325427;-84.0795782;CR;
Cote d'Ivoire;1960;546203558.5;Côte D'Ivoire;8.97205;17.6395833;TD;Mandoul
Cuba;1960;;Juba City;4.8459246;31.5959173;SS;Central Equatoria
Curacao;1960;;Curaçao;12.21339425;-69.0408499890865;NL;
Cyprus;1960;;Cyprus;35.129393050000004;33.22978295894309;CY;South Cyprus
Denmark;1960;;Town of Denmark;43.899871;-75.582504;US;New York
Djibouti;1960;;Djibouti;11.5936903;43.1472724;DJ;
Dominica;1960;;Dominica;15.4240429;-61.34185329351388;DM;Saint Joseph Parish
Ecuador;1960;2069464936.6;Ecuador;-3.48444;-80.2257543;EC;El Oro
Egypt, Arab Rep.;1960;;Egypt;-27.676714;152.0984108763645;AU;Queensland
El Salvador;1960;;El Salvador;-26.2462114;-69.6259658;CL;Atacama Region
Eritrea;1960;;Barentu;15.1056714;37.5888782;ER;Gash-Barka
Estonia;1960;;Эстония;56.3984817;96.4987629;RU;Krasnoyarsk Krai
Eswatini;1960;35076846.0;Eswatini;25.2164748;55.18185799560048;AE;Dubai
Ethiopia;1960;;Bahir Dar City;11.591367600000002;37.39000433472914;ET;Amhara Region
Faroe Islands;1960;;Faroe Islands;62.19850045;-6.817412433412175;FO;Eysturoy region
Fiji;1960;112328422.1;Fiji Island;44.55220515;-78.16900113841923;CA;Ontario
Finland;1960;5224102195.5;Finland;40.3843304;-75.4203885;US;Pennsylvania
France;1960;62225478000.9;France;46.2337295;5.3538775;FR;Auvergne-Rhône-Alpes
Gabon;1960;141468977.8;Gabon;14.1277147;122.912073;PH;Camarines Norte
Gambia, The;1960;;Gambia;7.5290563;-11.9729409;SL;Bonthe District
Georgia;1960;;Georgia;44.72422295;-73.14704151731551;US;Vermont
Germany;1960;;Germany;31.4399019;-95.350778;US;Texas
Ghana;1960;1223943662.0;Ghana;21.5718877;77.48657152558205;IN;Maharashtra
Gibraltar;1960;;Gibraltar;36.140807;-5.3541295;GI;
Greece;1960;4335186016.8;Town of Greece;43.2097838;-77.6930602;US;New York
Greenland;1960;;Greenland;71.81717990000001;-40.42628783678519;GL;
Grenada;1960;;Granada;37.1734995;-3.5995337;ES;Andalusia
Guam;1960;;Guam;13.4501257;144.75755102972062;US;Guam
Guatemala;1960;1043599900.0;Guatemala City;14.6222328;-90.5185188;GT;Guatemala Department
Guinea;1960;;Guinea;5.15;-1.75;GH;Western Region
Guyana;1960;170216241.1;City of Georgetown;6.8137426;-58.1624465;GY;Demerara-Mahaica
Haiti;1960;273187199.8;Haiti;21.7670269;-78.0947805;CU;Camagüey
Honduras;1960;335650000.0;Honduras;18.1513986;-66.2080216;US;Puerto Rico
Hungary;1960;;Hungary;41.9767629;-72.7789842;US;Connecticut
Iceland;1960;248434097.0;Iceland;39.3733802;-120.029143;US;California
India;1960;37029883876.2;India;2.183333;33.683333;UG;Kapelebyong
Indonesia;1960;;Pulau Bali;-8.456018100000001;115.27038551191184;ID;Bali
Iran, Islamic Rep.;1960;4199134389.9;Tirur;27.3396747;56.9567463;IR;Hormozgan Province
Iraq;1960;1683918766.4;Masif;36.686291;41.994791;IQ;Nineveh Governorate
Ireland;1960;1939329775.4;Ireland;53.4152268;-7.96655398901418;IE;
Isle of Man;1960;;Isle of Man;54.23592075;-4.514766902315387;IM;
Israel;1960;2598500000.0;Nein;32.6307267;35.3488686;IL;North District
Italy;1960;40385288344.2;Italy;32.1840381;-96.8847194;US;Texas
Jamaica;1960;699064380.4;Jamaica;40.7029134;-73.8006429;US;New York
Japan;1960;44307342950.4;Japan;40.9921996;-75.9078749;US;Pennsylvania
Jordan;1960;;Jordan;44.6663146;-93.6261918;US;Minnesota
Kazakhstan;1960;;Aral;46.797985;61.661221;KZ;Kyzylorda Region
Kenya;1960;791265459.5;Namanga;-2.5461733;36.7915635;KE;Kajiado County
Korea, Dem. People's Rep.;1960;;Korea;50.4837993;23.7590924;PL;Lublin Voivodeship
Korea, Rep.;1960;3958811881.2;Korea;50.4837993;23.7590924;PL;Lublin Voivodeship
Kosovo;1960;;Kosovo;42.6202038;21.1561827;XK;
Kuwait;1960;;Kuwait City;29.3796532;47.9734174;KW;Al Asimah
Lebanon;1960;;Lebanon;40.3429683;-76.4233816;US;Pennsylvania
Lesotho;1960;34579986.2;Lesotho;25.21481175;55.183041764491264;AE;Dubai
Liberia;1960;;Liberia;10.6333401;-85.4362722;CR;
Libya;1960;;Libya;25.22041215;55.17041701462804;AE;Dubai
Luxembourg;1960;703925705.9;Luxembourg;49.6112768;6.129799;LU;
Madagascar;1960;673081724.8;Madagascar;-18.77914875;46.71217161656727;MG;Province d’Antananarivo
Malawi;1960;;Malawi;-15.300392;34.701808;MW;Neno
Malaysia;1960;1916229477.1;Malaysia;25.23310645;55.1833741910576;AE;Dubai
Maldives;1960;;Reethi Rah;4.5145134;73.37029931463772;MV;Malé Atoll
Mali;1960;;Malé;4.1779879;73.5107387;MV;
Malta;1960;;Malta;35.90221125;14.413771221238456;MT;Northern Region
Marshall Islands;1960;;Marshall Islands;8.9995549;168.0002575;;
Mauritania;1960;;Mauritania;25.21534785;55.16782550577598;AE;Dubai
Mauritius;1960;;Piton;-20.0958533;57.6349749;MU;Rivière du Rempart District
Mexico;1960;13040000000.0;Mexico City;19.4326296;-99.1331785;MX;
Micronesia, Fed. Sts.;1960;;Micronesia;7.0;155.25;;
Moldova;1960;;Moldavia;46.9110939;27.2407723;RO;
Monaco;1960;;Monaco;43.7311424;7.4197576;MC;
Mongolia;1960;;Mongolia;43.9382593;-79.2235563;CA;Ontario
Montenegro;1960;;Montenegro;-29.6826112;-51.4687455;BR;Rio Grande do Sul
Morocco;1960;2037154741.9;Morocco;25.21643135;55.16539122632322;AE;Dubai
Mozambique;1960;;Mozambique;19.058889;-96.254167;MX;Veracruz
Myanmar;1960;545098463.8;Burma;25.2335648;55.17769106950793;AE;Dubai
Namibia;1960;;Namibia;25.21294965;55.179690756441246;AE;Dubai
Nauru;1960;;Nauru;-0.52832605;166.93091238321813;NR;Buada
Nepal;1960;508334414.0;Nepal;31.2496266;73.6632218;PK;Punjab
Netherlands;1960;12276734172.1;Netherlands;36.2993736;-89.7510062;US;Missouri
New Caledonia;1960;;New Caledonia;33.0551363;-92.6676556;US;Arkansas
New Zealand;1960;5485854792.0;New Zealand;46.4099904;-62.313043;CA;Prince Edward Island
Nicaragua;1960;;Nicaragua;28.3929796;-109.9816718;MX;Sonora
Niger;1960;449526873.3;Niger;25.21715185;55.17065374295412;AE;Dubai
Nigeria;1960;4196174501.5;Nigeria;25.21490645;55.174787069501136;AE;Dubai
Norway;1960;5163271598.2;Norway;41.9027805;-91.9215691;US;Iowa
Oman;1960;;Oman;22.17;58.0;OM;Ad Dakhiliyah Governorate
Pakistan;1960;3749265014.7;khuian;33.0281858;72.0575345;PK;Punjab
Palau;1960;;Palau-del-Vidre;42.5717989;2.9600905;FR;Occitania
Panama;1960;537147100.0;Panama;8.9714493;-79.5341802;PA;Panamá
Papua New Guinea;1960;230496036.9;New Guinea;-5.522593049999999;142.08709052245882;PG;
Paraguay;1960;;Asuncion;-25.2800459;-57.6343814;PY;
Peru;1960;;Peru;41.3272919;-89.1287636;US;Illinois
Philippines;1960;7515894110.6;Dapitan;8.6549449;123.4243754;PH;Zamboanga del Norte
Poland;1960;;Poland;41.024226;-80.614795;US;Ohio
Portugal;1960;3193200404.4;Portugal;-1.6292632;-45.2368151;BR;Maranhão
Puerto Rico;1960;1691900000.0;Puerto Rico;27.7865973;-15.7117774;ES;
Qatar;1960;;Qatar;39.1074426;47.5061085;IR;East Azerbaijan Province
Romania;1960;;Valeapai Caras-Severin;45.49288425;21.71999265492126;RO;
Rwanda;1960;119000024.0;Rwanda;8.9917947;38.7793214;ET;Addis Ababa
Samoa;1960;;Samoa;40.8187372;-124.1864518;US;California
San Marino;1960;;City of San Marino;43.9363996;12.4466991;SM;
Saudi Arabia;1960;;Saudi Arabia Towers;27.1860382;31.19298082388167;EG;Asyut
Senegal;1960;1003692370.5;Senegal;5.8304643;36.6642147;ET;Southern Nations, Nationalities, and Peoples
Serbia;1960;;Σέρβια;40.1846282;21.9990312;GR;Epirus and Western Macedonia
Seychelles;1960;12012024.6;Seychelles;25.22444045;55.18297256651013;AE;Dubai
Sierra Leone;1960;322151470.6;Freetown;8.479004;-13.26795;SL;Western Area Urban
Singapore;1960;704751700.3;Singapore;1.2899175;103.8519072;SG;
Solomon Islands;1960;;Solomon Islands;-7.9999999;158.9999999;SB;Isabel
Somalia;1960;180459936.8;Somalia;-13.180556;15.266667;AO;Huambo Province
South Africa;1960;8748596500.6;Jimmy Jones;-23.0379481;30.6493787;ZA;Limpopo
Spain;1960;12072126075.4;Santander;9.4170689;123.3351935;PH;Cebu
Sri Lanka;1960;1409873949.6;Sri Lanka;7.877395849999999;80.66247852355892;LK;
St. Lucia;1960;;Saint Lucia;13.90904385;-60.97792414113452;LC;Castries
St. Martin (French part);1960;;Saint Martin (France);18.0814066;-63.0467131;FR;Saint Martin (France)
Sudan;1960;1127011494.3;Sudan;10.9;6.5;NG;Kaduna State
Suriname;1960;99650000.0;Boven Suriname;3.91840165;-55.68355609257517;SR;
Sweden;1960;15822585033.6;Sweden;44.133435;-70.822678;US;Maine
Switzerland;1960;9522746719.2;Switzerland;55.0473993;24.2586917;LT;Kaunas County
Tajikistan;1960;;Tajikistan;37.3878883;68.6641057;TJ;Khatlon Region
Tanzania;1960;;Namanga;-2.5502402;36.7857028;TZ;Arusha
Thailand;1960;2760750860.6;Thailand;7.4931858;124.724704;PH;North Cotabato
Togo;1960;121128072.6;Togo;35.095364;137.042787;JP;
Tonga;1960;;Tonga;4.969409;10.699308;CM;West
Tunisia;1960;;Tunis;36.8002068;10.1857757;TN;Tunis
Turkiye;1960;7566666666.7;Turkey;25.22739495;55.16667799476122;AE;Dubai
Turkmenistan;1960;;"Türkmenistan;Туркменистан";40.4690217;62.2125775;TM;Lebap Region
Uganda;1960;423008385.7;Uganda;11.3163165;4.948482;NG;Niger State
Ukraine;1960;;Pechera;48.852417;28.722033;UA;Vinnytsia Oblast
United Arab Emirates;1960;;United Arab Emirates;25.22773555;55.174999621360726;AE;Dubai
United Kingdom;1960;73233967692.1;United Kingdom;25.22331675;55.15941464826079;AE;Dubai
United States;1960;543300000000.0;United States Minor Outlying Islands;16.7325005;-169.5282535;US;
Uruguay;1960;1208333333.3;Uruguay;-32.5049394;-53.5041115;UY;Cerro Largo
Uzbekistan;1960;;Tashkent;41.3123363;69.2787079;UZ;
Vanuatu;1960;;Vanuatu Abbatoir;-17.6873309;168.3049371;VU;Shefa Province
Viet Nam;1960;;Viet Nam;20.5996992;-76.3971143;CU;Holguín
Yemen, Rep.;1960;;Yaman;15.268007;42.583216;YE;Al Hudaydah Governorate
Zambia;1960;713000000.0;Zambia;-10.9432722;14.1443449;AO;Cuanza Sul Province
Zimbabwe;1960;1052990400.0;Zimbabwe;4.7609886;-6.66608;CI;Bas-Sassandra
Afghanistan;1961;548888895.6;Afghanistan;25.2333938;55.174389025091465;AE;Dubai
Albania;1961;;Albania;5.7587654;-73.9151617;CO;Santander
Algeria;1961;2434747055.9;Algiers;36.7753606;3.0601882;DZ;Algiers
Andorra;1961;;Andorra la Vella;42.5069391;1.5212467;AD;
Angola;1961;;Angola;41.634874;-84.99928;US;Indiana
Argentina;1961;;Argentina;27.0854542;-109.1412408;MX;Sonora
Armenia;1961;;Armenia;4.536307;-75.6723751;CO;Quindío
Aruba;1961;;Aruba;12.51756625;-69.98186415210564;NL;
Australia;1961;19682883149.3;Australia;-31.95260295;152.55512735272188;AU;New South Wales
Austria;1961;7311749633.4;Austria;25.22539605;55.16431379427327;AE;Dubai
Azerbaijan;1961;;Azerbaijan;25.23108035;55.17027266614927;AE;Dubai
Bahamas, The;1961;190098039.2;Lucayan Archipelago;26.6613931;-78.26835346979033;BS;
Bahrain;1961;;Bahrain Island;26.0280409;50.55316820508136;BH;Southern Governorate
Bangladesh;1961;4817580375.0;Bangladesh;-0.2864982;36.0514231;KE;Nakuru
Barbados;1961;;Barbados;13.1899463;-59.559215109754064;BB;
Belarus;1961;;Беларусь;54.3836054;30.4054004;BY;Vitsebsk Region
Belgium;1961;12400145221.6;Belgium;40.0620915;-87.6392353;US;Illinois
Belize;1961;29965000.0;Belize City;17.5000543;-88.2003115;BZ;Belize District
Benin;1961;235668220.5;Benin City;6.3330586;5.6221058;NG;Edo State
Bermuda;1961;89249985.1;Bermuda;32.3018217;-64.7603583;BM;
Bhutan;1961;;bhutan;33.0204804;75.6458366;IN;Jammu and Kashmir
Bolivia;1961;406000000.0;Bolivia;34.0676715;-78.1483283;US;North Carolina
Botswana;1961;32902612.9;Botswana;25.21468695;55.18137698902848;AE;Dubai
Brazil;1961;;Brazil;39.523652;-87.1250154;US;Indiana
Bulgaria;1961;;Bulgaria;44.1141209;12.32615;IT;Emilia-Romagna
Burkina Faso;1961;350247234.3;Family Savadogo;13.4329296;-1.9956277265699776;BF;
Cabo Verde;1961;;Cabo Verde;-21.4743338;-46.3964995;BR;Minas Gerais
Cambodia;1961;642857134.3;Cambodia Town;42.6379684;-71.3213616;US;Massachusetts
Canada;1961;40934952063.9;Cañada;38.6752399;-0.8099623;ES;Valencian Community
Cayman Islands;1961;;Cayman Islands;19.3298691;-81.17122907994889;KY;
Central African Republic;1961;123134583.5;Central African Republic;25.2183959;55.17523857621538;AE;Dubai
Chad;1961;333975336.1;chad;32.7600402;76.0706663;IN;Himachal Pradesh
Channel Islands;1961;;Channel Islands;33.96579515;-120.09189711105296;US;California
Chile;1961;4829238095.2;Chile;7.308692;-61.8478915;VE;Bolivar State
China;1961;50056685957.4;Guangzhou City;23.1301964;113.2592945;CN;Guangdong Province
Colombia;1961;4540447761.2;Colômbia;-20.1774291;-48.6872822;BR;São Paulo
Comoros;1961;;Cômoros;40.1132313;-8.2614827;PT;
Congo, Dem. Rep.;1961;;Congo;-4.3983689;15.403578174981702;CD;Kinshasa
Congo, Rep.;1961;151675738.9;Congo;-4.3983689;15.403578174981702;CD;Kinshasa
Costa Rica;1961;490325181.6;San José;9.9325427;-84.0795782;CR;
Cote d'Ivoire;1961;618245635.1;Côte D'Ivoire;8.97205;17.6395833;TD;Mandoul
Cuba;1961;;Juba City;4.8459246;31.5959173;SS;Central Equatoria
Curacao;1961;;Curaçao;12.21339425;-69.0408499890865;NL;
Cyprus;1961;;Cyprus;35.129393050000004;33.22978295894309;CY;South Cyprus
Denmark;1961;;Town of Denmark;43.899871;-75.582504;US;New York
Djibouti;1961;;Djibouti;11.5936903;43.1472724;DJ;
Dominica;1961;;Dominica;15.4240429;-61.34185329351388;DM;Saint Joseph Parish
Ecuador;1961;1753850954.8;Ecuador;-3.48444;-80.2257543;EC;El Oro
Egypt, Arab Rep.;1961;;Egypt;-27.676714;152.0984108763645;AU;Queensland
El Salvador;1961;;El Salvador;-26.2462114;-69.6259658;CL;Atacama Region
Eritrea;1961;;Barentu;15.1056714;37.5888782;ER;Gash-Barka
Estonia;1961;;Эстония;56.3984817;96.4987629;RU;Krasnoyarsk Krai
Eswatini;1961;43026042.8;Eswatini;25.2164748;55.18185799560048;AE;Dubai
Ethiopia;1961;;Bahir Dar City;11.591367600000002;37.39000433472914;ET;Amhara Region
Faroe Islands;1961;;Faroe Islands;62.19850045;-6.817412433412175;FO;Eysturoy region
Fiji;1961;116987784.9;Fiji Island;44.55220515;-78.16900113841923;CA;Ontario
Finland;1961;5921659485.0;Finland;40.3843304;-75.4203885;US;Pennsylvania
France;1961;67461644222.0;France;46.2337295;5.3538775;FR;Auvergne-Rhône-Alpes
Gabon;1961;167637907.1;Gabon;14.1277147;122.912073;PH;Camarines Norte
Gambia, The;1961;;Gambia;7.5290563;-11.9729409;SL;Bonthe District
Georgia;1961;;Georgia;44.72422295;-73.14704151731551;US;Vermont
Germany;1961;;Germany;31.4399019;-95.350778;US;Texas
Ghana;1961;1309859154.9;Ghana;21.5718877;77.48657152558205;IN;Maharashtra
Gibraltar;1961;;Gibraltar;36.140807;-5.3541295;GI;
Greece;1961;4961400439.3;Town of Greece;43.2097838;-77.6930602;US;New York
Greenland;1961;;Greenland;71.81717990000001;-40.42628783678519;GL;
Grenada;1961;;Granada;37.1734995;-3.5995337;ES;Andalusia
Guam;1961;;Guam;13.4501257;144.75755102972062;US;Guam
Guatemala;1961;1076699900.0;Guatemala City;14.6222328;-90.5185188;GT;Guatemala Department
Guinea;1961;;Guinea;5.15;-1.75;GH;Western Region
Guyana;1961;185849535.4;City of Georgetown;6.8137426;-58.1624465;GY;Demerara-Mahaica
Haiti;1961;271065999.8;Haiti;21.7670269;-78.0947805;CU;Camagüey
Honduras;1961;356200000.0;Honduras;18.1513986;-66.2080216;US;Puerto Rico
Hungary;1961;;Hungary;41.9767629;-72.7789842;US;Connecticut
Iceland;1961;253885656.3;Iceland;39.3733802;-120.029143;US;California
India;1961;39232435784.0;India;2.183333;33.683333;UG;Kapelebyong
Indonesia;1961;;Pulau Bali;-8.456018100000001;115.27038551191184;ID;Bali
Iran, Islamic Rep.;1961;4426949094.8;Tirur;27.3396747;56.9567463;IR;Hormozgan Province
Iraq;1961;1831479827.4;Masif;36.686291;41.994791;IQ;Nineveh Governorate
Ireland;1961;2088012282.4;Ireland;53.4152268;-7.96655398901418;IE;
Isle of Man;1961;;Isle of Man;54.23592075;-4.514766902315387;IM;
Israel;1961;3138500000.0;Nein;32.6307267;35.3488686;IL;North District
Italy;1961;44842760293.2;Italy;32.1840381;-96.8847194;US;Texas
Jamaica;1961;748043500.8;Jamaica;40.7029134;-73.8006429;US;New York
Japan;1961;53508617739.4;Japan;40.9921996;-75.9078749;US;Pennsylvania
Jordan;1961;;Jordan;44.6663146;-93.6261918;US;Minnesota
Kazakhstan;1961;;Aral;46.797985;61.661221;KZ;Kyzylorda Region
Kenya;1961;792959472.8;Namanga;-2.5461733;36.7915635;KE;Kajiado County
Korea, Dem. People's Rep.;1961;;Korea;50.4837993;23.7590924;PL;Lublin Voivodeship
Korea, Rep.;1961;2417628736.5;Korea;50.4837993;23.7590924;PL;Lublin Voivodeship
Kosovo;1961;;Kosovo;42.6202038;21.1561827;XK;
Kuwait;1961;;Kuwait City;29.3796532;47.9734174;KW;Al Asimah
Lebanon;1961;;Lebanon;40.3429683;-76.4233816;US;Pennsylvania
Lesotho;1961;35699985.7;Lesotho;25.21481175;55.183041764491264;AE;Dubai
Liberia;1961;;Liberia;10.6333401;-85.4362722;CR;
Libya;1961;;Libya;25.22041215;55.17041701462804;AE;Dubai
Luxembourg;1961;704145671.4;Luxembourg;49.6112768;6.129799;LU;
Madagascar;1961;699161944.6;Madagascar;-18.77914875;46.71217161656727;MG;Province d’Antananarivo
Malawi;1961;;Malawi;-15.300392;34.701808;MW;Neno
Malaysia;1961;1901856122.7;Malaysia;25.23310645;55.1833741910576;AE;Dubai
Maldives;1961;;Reethi Rah;4.5145134;73.37029931463772;MV;Malé Atoll
Mali;1961;;Malé;4.1779879;73.5107387;MV;
Malta;1961;;Malta;35.90221125;14.413771221238456;MT;Northern Region
Marshall Islands;1961;;Marshall Islands;8.9995549;168.0002575;;
Mauritania;1961;159213430.2;Mauritania;25.21534785;55.16782550577598;AE;Dubai
Mauritius;1961;;Piton;-20.0958533;57.6349749;MU;Rivière du Rempart District
Mexico;1961;14160000000.0;Mexico City;19.4326296;-99.1331785;MX;
Micronesia, Fed. Sts.;1961;;Micronesia;7.0;155.25;;
Moldova;1961;;Moldavia;46.9110939;27.2407723;RO;
Monaco;1961;;Monaco;43.7311424;7.4197576;MC;
Mongolia;1961;;Mongolia;43.9382593;-79.2235563;CA;Ontario
Montenegro;1961;;Montenegro;-29.6826112;-51.4687455;BR;Rio Grande do Sul
Morocco;1961;2025693539.6;Morocco;25.21643135;55.16539122632322;AE;Dubai
Mozambique;1961;;Mozambique;19.058889;-96.254167;MX;Veracruz
Myanmar;1961;605581577.3;Burma;25.2335648;55.17769106950793;AE;Dubai
Namibia;1961;;Namibia;25.21294965;55.179690756441246;AE;Dubai
Nauru;1961;;Nauru;-0.52832605;166.93091238321813;NR;Buada
Nepal;1961;531959561.2;Nepal;31.2496266;73.6632218;PK;Punjab
Netherlands;1961;13493833740.0;Netherlands;36.2993736;-89.7510062;US;Missouri
New Caledonia;1961;;New Caledonia;33.0551363;-92.6676556;US;Arkansas
New Zealand;1961;5670064168.2;New Zealand;46.4099904;-62.313043;CA;Prince Edward Island
Nicaragua;1961;;Nicaragua;28.3929796;-109.9816718;MX;Sonora
Niger;1961;485785231.0;Niger;25.21715185;55.17065374295412;AE;Dubai
Nigeria;1961;4467287893.1;Nigeria;25.21490645;55.174787069501136;AE;Dubai
Norway;1961;5632460936.5;Norway;41.9027805;-91.9215691;US;Iowa
Oman;1961;;Oman;22.17;58.0;OM;Ad Dakhiliyah Governorate
Pakistan;1961;4118647627.0;khuian;33.0281858;72.0575345;PK;Punjab
Palau;1961;;Palau-del-Vidre;42.5717989;2.9600905;FR;Occitania
Panama;1961;599026300.0;Panama;8.9714493;-79.5341802;PA;Panamá
Papua New Guinea;1961;244832039.2;New Guinea;-5.522593049999999;142.08709052245882;PG;
Paraguay;1961;;Asuncion;-25.2800459;-57.6343814;PY;
Peru;1961;;Peru;41.3272919;-89.1287636;US;Illinois
Philippines;1961;8171194424.9;Dapitan;8.6549449;123.4243754;PH;Zamboanga del Norte
Poland;1961;;Poland;41.024226;-80.614795;US;Ohio
Portugal;1961;3417516639.4;Portugal;-1.6292632;-45.2368151;BR;Maranhão
Puerto Rico;1961;1865100000.0;Puerto Rico;27.7865973;-15.7117774;ES;
Qatar;1961;;Qatar;39.1074426;47.5061085;IR;East Azerbaijan Province
Romania;1961;;Valeapai Caras-Severin;45.49288425;21.71999265492126;RO;
Rwanda;1961;122000016.0;Rwanda;8.9917947;38.7793214;ET;Addis Ababa
Samoa;1961;;Samoa;40.8187372;-124.1864518;US;California
San Marino;1961;;City of San Marino;43.9363996;12.4466991;SM;
Saudi Arabia;1961;;Saudi Arabia Towers;27.1860382;31.19298082388167;EG;Asyut
Senegal;1961;1058975257.0;Senegal;5.8304643;36.6642147;ET;Southern Nations, Nationalities, and Peoples
Serbia;1961;;Σέρβια;40.1846282;21.9990312;GR;Epirus and Western Macedonia
Seychelles;1961;11592023.8;Seychelles;25.22444045;55.18297256651013;AE;Dubai
Sierra Leone;1961;327979248.4;Freetown;8.479004;-13.26795;SL;Western Area Urban
Singapore;1961;764629788.1;Singapore;1.2899175;103.8519072;SG;
Solomon Islands;1961;;Solomon Islands;-7.9999999;158.9999999;SB;Isabel
Somalia;1961;191659914.4;Somalia;-13.180556;15.266667;AO;Huambo Province
South Africa;1961;9225996309.6;Jimmy Jones;-23.0379481;30.6493787;ZA;Limpopo
Spain;1961;13834300571.5;Santander;9.4170689;123.3351935;PH;Cebu
Sri Lanka;1961;1444327731.1;Sri Lanka;7.877395849999999;80.66247852355892;LK;
St. Lucia;1961;;Saint Lucia;13.90904385;-60.97792414113452;LC;Castries
St. Martin (French part);1961;;Saint Martin (France);18.0814066;-63.0467131;FR;Saint Martin (France)
Sudan;1961;1223563218.4;Sudan;10.9;6.5;NG;Kaduna State
Suriname;1961;107700000.0;Boven Suriname;3.91840165;-55.68355609257517;SR;
Sweden;1961;17212686614.6;Sweden;44.133435;-70.822678;US;Maine
Switzerland;1961;10712712465.1;Switzerland;55.0473993;24.2586917;LT;Kaunas County
Tajikistan;1961;;Tajikistan;37.3878883;68.6641057;TJ;Khatlon Region
Tanzania;1961;;Namanga;-2.5502402;36.7857028;TZ;Arusha
Thailand;1961;3034037811.0;Thailand;7.4931858;124.724704;PH;North Cotabato
Togo;1961;126396468.7;Togo;35.095364;137.042787;JP;
Tonga;1961;;Tonga;4.969409;10.699308;CM;West
Tunisia;1961;;Tunis;36.8002068;10.1857757;TN;Tunis
Turkiye;1961;7988888888.9;Turkey;25.22739495;55.16667799476122;AE;Dubai
Turkmenistan;1961;;"Türkmenistan;Туркменистан";40.4690217;62.2125775;TM;Lebap Region
Uganda;1961;441524109.0;Uganda;11.3163165;4.948482;NG;Niger State
Ukraine;1961;;Pechera;48.852417;28.722033;UA;Vinnytsia Oblast
United Arab Emirates;1961;;United Arab Emirates;25.22773555;55.174999621360726;AE;Dubai
United Kingdom;1961;77741965703.4;United Kingdom;25.22331675;55.15941464826079;AE;Dubai
United States;1961;563300000000.0;United States Minor Outlying Islands;16.7325005;-169.5282535;US;
Uruguay;1961;1600000000.0;Uruguay;-32.5049394;-53.5041115;UY;Cerro Largo
Uzbekistan;1961;;Tashkent;41.3123363;69.2787079;UZ;
Vanuatu;1961;;Vanuatu Abbatoir;-17.6873309;168.3049371;VU;Shefa Province
Viet Nam;1961;;Viet Nam;20.5996992;-76.3971143;CU;Holguín
Yemen, Rep.;1961;;Yaman;15.268007;42.583216;YE;Al Hudaydah Governorate
Zambia;1961;696285714.3;Zambia;-10.9432722;14.1443449;AO;Cuanza Sul Province
Zimbabwe;1961;1096646600.0;Zimbabwe;4.7609886;-6.66608;CI;Bas-Sassandra
Afghanistan;1962;546666677.8;Afghanistan;25.2333938;55.174389025091465;AE;Dubai
Albania;1962;;Albania;5.7587654;-73.9151617;CO;Santander
Algeria;1962;2001444543.9;Algiers;36.7753606;3.0601882;DZ;Algiers
Andorra;1962;;Andorra la Vella;42.5069391;1.5212467;AD;
Angola;1962;;Angola;41.634874;-84.99928;US;Indiana
Argentina;1962;;Argentina;27.0854542;-109.1412408;MX;Sonora
Armenia;1962;;Armenia;4.536307;-75.6723751;CO;Quindío
Aruba;1962;;Aruba;12.51756625;-69.98186415210564;NL;
Australia;1962;19922563187.6;Australia;-31.95260295;152.55512735272188;AU;New South Wales
Austria;1962;7756110210.1;Austria;25.22539605;55.16431379427327;AE;Dubai
Azerbaijan;1962;;Azerbaijan;25.23108035;55.17027266614927;AE;Dubai
Bahamas, The;1962;212254902.0;Lucayan Archipelago;26.6613931;-78.26835346979033;BS;
Bahrain;1962;;Bahrain Island;26.0280409;50.55316820508136;BH;Southern Governorate
Bangladesh;1962;5081413541.7;Bangladesh;-0.2864982;36.0514231;KE;Nakuru
Barbados;1962;;Barbados;13.1899463;-59.559215109754064;BB;
Belarus;1962;;Беларусь;54.3836054;30.4054004;BY;Vitsebsk Region
Belgium;1962;13264015675.3;Belgium;40.0620915;-87.6392353;US;Illinois
Belize;1962;31857591.9;Belize City;17.5000543;-88.2003115;BZ;Belize District
Benin;1962;236434954.0;Benin City;6.3330586;5.6221058;NG;Edo State
Bermuda;1962;94149984.3;Bermuda;32.3018217;-64.7603583;BM;
Bhutan;1962;;bhutan;33.0204804;75.6458366;IN;Jammu and Kashmir
Bolivia;1962;443916666.7;Bolivia;34.0676715;-78.1483283;US;North Carolina
Botswana;1962;35644956.6;Botswana;25.21468695;55.18137698902848;AE;Dubai
Brazil;1962;;Brazil;39.523652;-87.1250154;US;Indiana
Bulgaria;1962;;Bulgaria;44.1141209;12.32615;IT;Emilia-Romagna
Burkina Faso;1962;379567099.2;Family Savadogo;13.4329296;-1.9956277265699776;BF;
Cabo Verde;1962;;Cabo Verde;-21.4743338;-46.3964995;BR;Minas Gerais
Cambodia;1962;660000008.6;Cambodia Town;42.6379684;-71.3213616;US;Massachusetts
Canada;1962;42227447631.9;Cañada;38.6752399;-0.8099623;ES;Valencian Community
Cayman Islands;1962;;Cayman Islands;19.3298691;-81.17122907994889;KY;
Central African Republic;1962;124482773.8;Central African Republic;25.2183959;55.17523857621538;AE;Dubai
Chad;1962;357635713.4;chad;32.7600402;76.0706663;IN;Himachal Pradesh
Channel Islands;1962;;Channel Islands;33.96579515;-120.09189711105296;US;California
Chile;1962;5631285444.2;Chile;7.308692;-61.8478915;VE;Bolivar State
China;1962;47209186415.4;Guangzhou City;23.1301964;113.2592945;CN;Guangdong Province
Colombia;1962;4955538218.8;Colômbia;-20.1774291;-48.6872822;BR;São Paulo
Comoros;1962;;Cômoros;40.1132313;-8.2614827;PT;
Congo, Dem. Rep.;1962;;Congo;-4.3983689;15.403578174981702;CD;Kinshasa
Congo, Rep.;1962;166521239.7;Congo;-4.3983689;15.403578174981702;CD;Kinshasa
Costa Rica;1962;479180824.3;San José;9.9325427;-84.0795782;CR;
Cote d'Ivoire;1962;645284474.6;Côte D'Ivoire;8.97205;17.6395833;TD;Mandoul
Cuba;1962;;Juba City;4.8459246;31.5959173;SS;Central Equatoria
Curacao;1962;;Curaçao;12.21339425;-69.0408499890865;NL;
Cyprus;1962;;Cyprus;35.129393050000004;33.22978295894309;CY;South Cyprus
Denmark;1962;;Town of Denmark;43.899871;-75.582504;US;New York
Djibouti;1962;;Djibouti;11.5936903;43.1472724;DJ;
Dominica;1962;;Dominica;15.4240429;-61.34185329351388;DM;Saint Joseph Parish
Ecuador;1962;1518207703.9;Ecuador;-3.48444;-80.2257543;EC;El Oro
Egypt, Arab Rep.;1962;;Egypt;-27.676714;152.0984108763645;AU;Queensland
El Salvador;1962;;El Salvador;-26.2462114;-69.6259658;CL;Atacama Region
Eritrea;1962;;Barentu;15.1056714;37.5888782;ER;Gash-Barka
Estonia;1962;;Эстония;56.3984817;96.4987629;RU;Krasnoyarsk Krai
Eswatini;1962;45927961.6;Eswatini;25.2164748;55.18185799560048;AE;Dubai
Ethiopia;1962;;Bahir Dar City;11.591367600000002;37.39000433472914;ET;Amhara Region
Faroe Islands;1962;;Faroe Islands;62.19850045;-6.817412433412175;FO;Eysturoy region
Fiji;1962;122906435.0;Fiji Island;44.55220515;-78.16900113841923;CA;Ontario
Finland;1962;6340580854.4;Finland;40.3843304;-75.4203885;US;Pennsylvania
France;1962;75607529809.9;France;46.2337295;5.3538775;FR;Auvergne-Rhône-Alpes
Gabon;1962;182796536.3;Gabon;14.1277147;122.912073;PH;Camarines Norte
Gambia, The;1962;;Gambia;7.5290563;-11.9729409;SL;Bonthe District
Georgia;1962;;Georgia;44.72422295;-73.14704151731551;US;Vermont
Germany;1962;;Germany;31.4399019;-95.350778;US;Texas
Ghana;1962;1390140845.1;Ghana;21.5718877;77.48657152558205;IN;Maharashtra
Gibraltar;1962;;Gibraltar;36.140807;-5.3541295;GI;
Greece;1962;5213047711.4;Town of Greece;43.2097838;-77.6930602;US;New York
Greenland;1962;;Greenland;71.81717990000001;-40.42628783678519;GL;
Grenada;1962;;Granada;37.1734995;-3.5995337;ES;Andalusia
Guam;1962;;Guam;13.4501257;144.75755102972062;US;Guam
Guatemala;1962;1143600000.0;Guatemala City;14.6222328;-90.5185188;GT;Guatemala Department
Guinea;1962;;Guinea;5.15;-1.75;GH;Western Region
Guyana;1962;194949512.6;City of Georgetown;6.8137426;-58.1624465;GY;Demerara-Mahaica
Haiti;1962;281896799.8;Haiti;21.7670269;-78.0947805;CU;Camagüey
Honduras;1962;387750000.0;Honduras;18.1513986;-66.2080216;US;Puerto Rico
Hungary;1962;;Hungary;41.9767629;-72.7789842;US;Connecticut
Iceland;1962;284916516.2;Iceland;39.3733802;-120.029143;US;California
India;1962;42161481858.1;India;2.183333;33.683333;UG;Kapelebyong
Indonesia;1962;;Pulau Bali;-8.456018100000001;115.27038551191184;ID;Bali
Iran, Islamic Rep.;1962;4693566416.5;Tirur;27.3396747;56.9567463;IR;Hormozgan Province
Iraq;1962;1954399498.2;Masif;36.686291;41.994791;IQ;Nineveh Governorate
Ireland;1962;2260349684.1;Ireland;53.4152268;-7.96655398901418;IE;
Isle of Man;1962;;Isle of Man;54.23592075;-4.514766902315387;IM;
Israel;1962;2510000000.0;Nein;32.6307267;35.3488686;IL;North District
Italy;1962;50383891899.0;Italy;32.1840381;-96.8847194;US;Texas
Jamaica;1962;777727688.9;Jamaica;40.7029134;-73.8006429;US;New York
Japan;1962;60723018683.7;Japan;40.9921996;-75.9078749;US;Pennsylvania
Jordan;1962;;Jordan;44.6663146;-93.6261918;US;Minnesota
Kazakhstan;1962;;Aral;46.797985;61.661221;KZ;Kyzylorda Region
Kenya;1962;868111400.8;Namanga;-2.5461733;36.7915635;KE;Kajiado County
Korea, Dem. People's Rep.;1962;;Korea;50.4837993;23.7590924;PL;Lublin Voivodeship
Korea, Rep.;1962;2814615384.6;Korea;50.4837993;23.7590924;PL;Lublin Voivodeship
Kosovo;1962;;Kosovo;42.6202038;21.1561827;XK;
Kuwait;1962;;Kuwait City;29.3796532;47.9734174;KW;Al Asimah
Lebanon;1962;;Lebanon;40.3429683;-76.4233816;US;Pennsylvania
Lesotho;1962;41859983.3;Lesotho;25.21481175;55.183041764491264;AE;Dubai
Liberia;1962;;Liberia;10.6333401;-85.4362722;CR;
Libya;1962;;Libya;25.22041215;55.17041701462804;AE;Dubai
Luxembourg;1962;741509480.8;Luxembourg;49.6112768;6.129799;LU;
Madagascar;1962;739286907.6;Madagascar;-18.77914875;46.71217161656727;MG;Province d’Antananarivo
Malawi;1962;;Malawi;-15.300392;34.701808;MW;Neno
Malaysia;1962;2001489602.2;Malaysia;25.23310645;55.1833741910576;AE;Dubai
Maldives;1962;;Reethi Rah;4.5145134;73.37029931463772;MV;Malé Atoll
Mali;1962;;Malé;4.1779879;73.5107387;MV;
Malta;1962;;Malta;35.90221125;14.413771221238456;MT;Northern Region
Marshall Islands;1962;;Marshall Islands;8.9995549;168.0002575;;
Mauritania;1962;164271557.6;Mauritania;25.21534785;55.16782550577598;AE;Dubai
Mauritius;1962;;Piton;-20.0958533;57.6349749;MU;Rivière du Rempart District
Mexico;1962;15200000000.0;Mexico City;19.4326296;-99.1331785;MX;
Micronesia, Fed. Sts.;1962;;Micronesia;7.0;155.25;;
Moldova;1962;;Moldavia;46.9110939;27.2407723;RO;
Monaco;1962;;Monaco;43.7311424;7.4197576;MC;
Mongolia;1962;;Mongolia;43.9382593;-79.2235563;CA;Ontario
Montenegro;1962;;Montenegro;-29.6826112;-51.4687455;BR;Rio Grande do Sul
Morocco;1962;2379611124.6;Morocco;25.21643135;55.16539122632322;AE;Dubai
Mozambique;1962;;Mozambique;19.058889;-96.254167;MX;Veracruz
Myanmar;1962;634528851.5;Burma;25.2335648;55.17769106950793;AE;Dubai
Namibia;1962;;Namibia;25.21294965;55.179690756441246;AE;Dubai
Nauru;1962;;Nauru;-0.52832605;166.93091238321813;NR;Buada
Nepal;1962;574091100.7;Nepal;31.2496266;73.6632218;PK;Punjab
Netherlands;1962;14647057370.1;Netherlands;36.2993736;-89.7510062;US;Missouri
New Caledonia;1962;;New Caledonia;33.0551363;-92.6676556;US;Arkansas
New Zealand;1962;6077496267.8;New Zealand;46.4099904;-62.313043;CA;Prince Edward Island
Nicaragua;1962;;Nicaragua;28.3929796;-109.9816718;MX;Sonora
Niger;1962;531736599.3;Niger;25.21715185;55.17065374295412;AE;Dubai
Nigeria;1962;4909399176.2;Nigeria;25.21490645;55.174787069501136;AE;Dubai
Norway;1962;6066976682.7;Norway;41.9027805;-91.9215691;US;Iowa
Oman;1962;;Oman;22.17;58.0;OM;Ad Dakhiliyah Governorate
Pakistan;1962;4310163796.7;khuian;33.0281858;72.0575345;PK;Punjab
Palau;1962;;Palau-del-Vidre;42.5717989;2.9600905;FR;Occitania
Panama;1962;652120900.0;Panama;8.9714493;-79.5341802;PA;Panamá
Papua New Guinea;1962;261184041.8;New Guinea;-5.522593049999999;142.08709052245882;PG;
Paraguay;1962;;Asuncion;-25.2800459;-57.6343814;PY;
Peru;1962;;Peru;41.3272919;-89.1287636;US;Illinois
Philippines;1962;4954593071.8;Dapitan;8.6549449;123.4243754;PH;Zamboanga del Norte
Poland;1962;;Poland;41.024226;-80.614795;US;Ohio
Portugal;1962;3668222357.7;Portugal;-1.6292632;-45.2368151;BR;Maranhão
Puerto Rico;1962;2094400000.0;Puerto Rico;27.7865973;-15.7117774;ES;
Qatar;1962;;Qatar;39.1074426;47.5061085;IR;East Azerbaijan Province
Romania;1962;;Valeapai Caras-Severin;45.49288425;21.71999265492126;RO;
Rwanda;1962;125000008.0;Rwanda;8.9917947;38.7793214;ET;Addis Ababa
Samoa;1962;;Samoa;40.8187372;-124.1864518;US;California
San Marino;1962;;City of San Marino;43.9363996;12.4466991;SM;
Saudi Arabia;1962;;Saudi Arabia Towers;27.1860382;31.19298082388167;EG;Asyut
Senegal;1962;1085475790.6;Senegal;5.8304643;36.6642147;ET;Southern Nations, Nationalities, and Peoples
Serbia;1962;;Σέρβια;40.1846282;21.9990312;GR;Epirus and Western Macedonia
Seychelles;1962;12642025.9;Seychelles;25.22444045;55.18297256651013;AE;Dubai
Sierra Leone;1962;342872712.4;Freetown;8.479004;-13.26795;SL;Western Area Urban
Singapore;1962;826239211.8;Singapore;1.2899175;103.8519072;SG;
Solomon Islands;1962;;Solomon Islands;-7.9999999;158.9999999;SB;Isabel
Somalia;1962;203531927.5;Somalia;-13.180556;15.266667;AO;Huambo Province
South Africa;1962;9813996074.4;Jimmy Jones;-23.0379481;30.6493787;ZA;Limpopo
Spain;1962;16138545209.2;Santander;9.4170689;123.3351935;PH;Cebu
Sri Lanka;1962;1434156378.6;Sri Lanka;7.877395849999999;80.66247852355892;LK;
St. Lucia;1962;;Saint Lucia;13.90904385;-60.97792414113452;LC;Castries
St. Martin (French part);1962;;Saint Martin (France);18.0814066;-63.0467131;FR;Saint Martin (France)
Sudan;1962;1329022988.5;Sudan;10.9;6.5;NG;Kaduna State
Suriname;1962;116150000.0;Boven Suriname;3.91840165;-55.68355609257517;SR;
Sweden;1962;18667251380.1;Sweden;44.133435;-70.822678;US;Maine
Switzerland;1962;11879982758.6;Switzerland;55.0473993;24.2586917;LT;Kaunas County
Tajikistan;1962;;Tajikistan;37.3878883;68.6641057;TJ;Khatlon Region
Tanzania;1962;;Namanga;-2.5502402;36.7857028;TZ;Arusha
Thailand;1962;3308912796.9;Thailand;7.4931858;124.724704;PH;North Cotabato
Togo;1962;132237468.1;Togo;35.095364;137.042787;JP;
Tonga;1962;;Tonga;4.969409;10.699308;CM;West
Tunisia;1962;;Tunis;36.8002068;10.1857757;TN;Tunis
Turkiye;1962;8922222222.2;Turkey;25.22739495;55.16667799476122;AE;Dubai
Turkmenistan;1962;;"Türkmenistan;Туркменистан";40.4690217;62.2125775;TM;Lebap Region
Uganda;1962;449012578.6;Uganda;11.3163165;4.948482;NG;Niger State
Ukraine;1962;;Pechera;48.852417;28.722033;UA;Vinnytsia Oblast
United Arab Emirates;1962;;United Arab Emirates;25.22773555;55.174999621360726;AE;Dubai
United Kingdom;1962;81247564156.8;United Kingdom;25.22331675;55.15941464826079;AE;Dubai
United States;1962;605100000000.0;United States Minor Outlying Islands;16.7325005;-169.5282535;US;
Uruguay;1962;1763636363.6;Uruguay;-32.5049394;-53.5041115;UY;Cerro Largo
Uzbekistan;1962;;Tashkent;41.3123363;69.2787079;UZ;
Vanuatu;1962;;Vanuatu Abbatoir;-17.6873309;168.3049371;VU;Shefa Province
Viet Nam;1962;;Viet Nam;20.5996992;-76.3971143;CU;Holguín
Yemen, Rep.;1962;;Yaman;15.268007;42.583216;YE;Al Hudaydah Governorate
Zambia;1962;693142857.1;Zambia;-10.9432722;14.1443449;AO;Cuanza Sul Province
Zimbabwe;1962;1117601600.0;Zimbabwe;4.7609886;-6.66608;CI;Bas-Sassandra
Afghanistan;1963;751111191.1;Afghanistan;25.2333938;55.174389025091465;AE;Dubai
Albania;1963;;Albania;5.7587654;-73.9151617;CO;Santander
Algeria;1963;2702982017.6;Algiers;36.7753606;3.0601882;DZ;Algiers
Andorra;1963;;Andorra la Vella;42.5069391;1.5212467;AD;
Angola;1963;;Angola;41.634874;-84.99928;US;Indiana
Argentina;1963;;Argentina;27.0854542;-109.1412408;MX;Sonora
Armenia;1963;;Armenia;4.536307;-75.6723751;CO;Quindío
Aruba;1963;;Aruba;12.51756625;-69.98186415210564;NL;
Australia;1963;21539843446.4;Australia;-31.95260295;152.55512735272188;AU;New South Wales
Austria;1963;8374175257.7;Austria;25.22539605;55.16431379427327;AE;Dubai
Azerbaijan;1963;;Azerbaijan;25.23108035;55.17027266614927;AE;Dubai
Bahamas, The;1963;237745098.0;Lucayan Archipelago;26.6613931;-78.26835346979033;BS;
Bahrain;1963;;Bahrain Island;26.0280409;50.55316820508136;BH;Southern Governorate
Bangladesh;1963;5319458562.5;Bangladesh;-0.2864982;36.0514231;KE;Nakuru
Barbados;1963;;Barbados;13.1899463;-59.559215109754064;BB;
Belarus;1963;;Беларусь;54.3836054;30.4054004;BY;Vitsebsk Region
Belgium;1963;14260017387.0;Belgium;40.0620915;-87.6392353;US;Illinois
Belize;1963;33750113.8;Belize City;17.5000543;-88.2003115;BZ;Belize District
Benin;1963;253927697.3;Benin City;6.3330586;5.6221058;NG;Edo State
Bermuda;1963;96366650.6;Bermuda;32.3018217;-64.7603583;BM;
Bhutan;1963;;bhutan;33.0204804;75.6458366;IN;Jammu and Kashmir
Bolivia;1963;478000000.0;Bolivia;34.0676715;-78.1483283;US;North Carolina
Botswana;1963;38091842.9;Botswana;25.21468695;55.18137698902848;AE;Dubai
Brazil;1963;;Brazil;39.523652;-87.1250154;US;Indiana
Bulgaria;1963;;Bulgaria;44.1141209;12.32615;IT;Emilia-Romagna
Burkina Faso;1963;394040667.1;Family Savadogo;13.4329296;-1.9956277265699776;BF;
Cabo Verde;1963;;Cabo Verde;-21.4743338;-46.3964995;BR;Minas Gerais
Cambodia;1963;728571437.1;Cambodia Town;42.6379684;-71.3213616;US;Massachusetts
Canada;1963;45029988561.2;Cañada;38.6752399;-0.8099623;ES;Valencian Community
Cayman Islands;1963;;Cayman Islands;19.3298691;-81.17122907994889;KY;
Central African Republic;1963;129379123.8;Central African Republic;25.2183959;55.17523857621538;AE;Dubai
Chad;1963;371767002.2;chad;32.7600402;76.0706663;IN;Himachal Pradesh
Channel Islands;1963;;Channel Islands;33.96579515;-120.09189711105296;US;California
Chile;1963;5591307028.4;Chile;7.308692;-61.8478915;VE;Bolivar State
China;1963;50706614526.1;Guangzhou City;23.1301964;113.2592945;CN;Guangdong Province
Colombia;1963;4836166666.7;Colômbia;-20.1774291;-48.6872822;BR;São Paulo
Comoros;1963;;Cômoros;40.1132313;-8.2614827;PT;
Congo, Dem. Rep.;1963;;Congo;-4.3983689;15.403578174981702;CD;Kinshasa
Congo, Rep.;1963;172233430.7;Congo;-4.3983689;15.403578174981702;CD;Kinshasa
Costa Rica;1963;511902136.8;San José;9.9325427;-84.0795782;CR;
Cote d'Ivoire;1963;761047199.0;Côte D'Ivoire;8.97205;17.6395833;TD;Mandoul
Cuba;1963;;Juba City;4.8459246;31.5959173;SS;Central Equatoria
Curacao;1963;;Curaçao;12.21339425;-69.0408499890865;NL;
Cyprus;1963;;Cyprus;35.129393050000004;33.22978295894309;CY;South Cyprus
Denmark;1963;;Town of Denmark;43.899871;-75.582504;US;New York
Djibouti;1963;;Djibouti;11.5936903;43.1472724;DJ;
Dominica;1963;;Dominica;15.4240429;-61.34185329351388;DM;Saint Joseph Parish
Ecuador;1963;1824343870.4;Ecuador;-3.48444;-80.2257543;EC;El Oro
Egypt, Arab Rep.;1963;;Egypt;-27.676714;152.0984108763645;AU;Queensland
El Salvador;1963;;El Salvador;-26.2462114;-69.6259658;CL;Atacama Region
Eritrea;1963;;Barentu;15.1056714;37.5888782;ER;Gash-Barka
Estonia;1963;;Эстония;56.3984817;96.4987629;RU;Krasnoyarsk Krai
Eswatini;1963;54129438.3;Eswatini;25.2164748;55.18185799560048;AE;Dubai
Ethiopia;1963;;Bahir Dar City;11.591367600000002;37.39000433472914;ET;Amhara Region
Faroe Islands;1963;;Faroe Islands;62.19850045;-6.817412433412175;FO;Eysturoy region
Fiji;1963;129454728.6;Fiji Island;44.55220515;-78.16900113841923;CA;Ontario
Finland;1963;6885920328.7;Finland;40.3843304;-75.4203885;US;Pennsylvania
France;1963;84759195105.9;France;46.2337295;5.3538775;FR;Auvergne-Rhône-Alpes
Gabon;1963;154480244.1;Gabon;14.1277147;122.912073;PH;Camarines Norte
Gambia, The;1963;;Gambia;7.5290563;-11.9729409;SL;Bonthe District
Georgia;1963;;Georgia;44.72422295;-73.14704151731551;US;Vermont
Germany;1963;;Germany;31.4399019;-95.350778;US;Texas
Ghana;1963;1549295774.6;Ghana;21.5718877;77.48657152558205;IN;Maharashtra
Gibraltar;1963;;Gibraltar;36.140807;-5.3541295;GI;
Greece;1963;5895278024.1;Town of Greece;43.2097838;-77.6930602;US;New York
Greenland;1963;;Greenland;71.81717990000001;-40.42628783678519;GL;
Grenada;1963;;Granada;37.1734995;-3.5995337;ES;Andalusia
Guam;1963;;Guam;13.4501257;144.75755102972062;US;Guam
Guatemala;1963;1262800000.0;Guatemala City;14.6222328;-90.5185188;GT;Guatemala Department
Guinea;1963;;Guinea;5.15;-1.75;GH;Western Region
Guyana;1963;175757893.9;City of Georgetown;6.8137426;-58.1624465;GY;Demerara-Mahaica
Haiti;1963;294883399.8;Haiti;21.7670269;-78.0947805;CU;Camagüey
Honduras;1963;410200000.0;Honduras;18.1513986;-66.2080216;US;Puerto Rico
Hungary;1963;;Hungary;41.9767629;-72.7789842;US;Connecticut
Iceland;1963;340061650.1;Iceland;39.3733802;-120.029143;US;California
India;1963;48421923459.1;India;2.183333;33.683333;UG;Kapelebyong
Indonesia;1963;;Pulau Bali;-8.456018100000001;115.27038551191184;ID;Bali
Iran, Islamic Rep.;1963;4928628018.4;Tirur;27.3396747;56.9567463;IR;Hormozgan Province
Iraq;1963;1978199488.7;Masif;36.686291;41.994791;IQ;Nineveh Governorate
Ireland;1963;2430843768.4;Ireland;53.4152268;-7.96655398901418;IE;
Isle of Man;1963;;Isle of Man;54.23592075;-4.514766902315387;IM;
Israel;1963;2992333333.3;Nein;32.6307267;35.3488686;IL;North District
Italy;1963;57710743059.8;Italy;32.1840381;-96.8847194;US;Texas
Jamaica;1963;826706669.3;Jamaica;40.7029134;-73.8006429;US;New York
Japan;1963;69498131797.3;Japan;40.9921996;-75.9078749;US;Pennsylvania
Jordan;1963;;Jordan;44.6663146;-93.6261918;US;Minnesota
Kazakhstan;1963;;Aral;46.797985;61.661221;KZ;Kyzylorda Region
Kenya;1963;926589349.4;Namanga;-2.5461733;36.7915635;KE;Kajiado County
Korea, Dem. People's Rep.;1963;;Korea;50.4837993;23.7590924;PL;Lublin Voivodeship
Korea, Rep.;1963;3988461538.5;Korea;50.4837993;23.7590924;PL;Lublin Voivodeship
Kosovo;1963;;Kosovo;42.6202038;21.1561827;XK;
Kuwait;1963;;Kuwait City;29.3796532;47.9734174;KW;Al Asimah
Lebanon;1963;;Lebanon;40.3429683;-76.4233816;US;Pennsylvania
Lesotho;1963;47039981.2;Lesotho;25.21481175;55.183041764491264;AE;Dubai
Liberia;1963;;Liberia;10.6333401;-85.4362722;CR;
Libya;1963;;Libya;25.22041215;55.17041701462804;AE;Dubai
Luxembourg;1963;791140595.8;Luxembourg;49.6112768;6.129799;LU;
Madagascar;1963;759345863.7;Madagascar;-18.77914875;46.71217161656727;MG;Province d’Antananarivo
Malawi;1963;;Malawi;-15.300392;34.701808;MW;Neno
Malaysia;1963;2510110348.2;Malaysia;25.23310645;55.1833741910576;AE;Dubai
Maldives;1963;;Reethi Rah;4.5145134;73.37029931463772;MV;Malé Atoll
Mali;1963;;Malé;4.1779879;73.5107387;MV;
Malta;1963;;Malta;35.90221125;14.413771221238456;MT;Northern Region
Marshall Islands;1963;;Marshall Islands;8.9995549;168.0002575;;
Mauritania;1963;168186297.2;Mauritania;25.21534785;55.16782550577598;AE;Dubai
Mauritius;1963;;Piton;-20.0958533;57.6349749;MU;Rivière du Rempart District
Mexico;1963;16960000000.0;Mexico City;19.4326296;-99.1331785;MX;
Micronesia, Fed. Sts.;1963;;Micronesia;7.0;155.25;;
Moldova;1963;;Moldavia;46.9110939;27.2407723;RO;
Monaco;1963;;Monaco;43.7311424;7.4197576;MC;
Mongolia;1963;;Mongolia;43.9382593;-79.2235563;CA;Ontario
Montenegro;1963;;Montenegro;-29.6826112;-51.4687455;BR;Rio Grande do Sul
Morocco;1963;2657252578.3;Morocco;25.21643135;55.16539122632322;AE;Dubai
Mozambique;1963;;Mozambique;19.058889;-96.254167;MX;Veracruz
Myanmar;1963;598998434.7;Burma;25.2335648;55.17769106950793;AE;Dubai
Namibia;1963;;Namibia;25.21294965;55.179690756441246;AE;Dubai
Nauru;1963;;Nauru;-0.52832605;166.93091238321813;NR;Buada
Nepal;1963;496947904.4;Nepal;31.2496266;73.6632218;PK;Punjab
Netherlands;1963;15891241386.3;Netherlands;36.2993736;-89.7510062;US;Missouri
New Caledonia;1963;;New Caledonia;33.0551363;-92.6676556;US;Arkansas
New Zealand;1963;6638937283.1;New Zealand;46.4099904;-62.313043;CA;Prince Edward Island
Nicaragua;1963;;Nicaragua;28.3929796;-109.9816718;MX;Sonora
Niger;1963;586294878.7;Niger;25.21715185;55.17065374295412;AE;Dubai
Nigeria;1963;5165590253.8;Nigeria;25.21490645;55.174787069501136;AE;Dubai
Norway;1963;6510239502.8;Norway;41.9027805;-91.9215691;US;Iowa
Oman;1963;;Oman;22.17;58.0;OM;Ad Dakhiliyah Governorate
Pakistan;1963;4630827383.5;khuian;33.0281858;72.0575345;PK;Punjab
Palau;1963;;Palau-del-Vidre;42.5717989;2.9600905;FR;Occitania
Panama;1963;722784500.0;Panama;8.9714493;-79.5341802;PA;Panamá
Papua New Guinea;1963;275968044.2;New Guinea;-5.522593049999999;142.08709052245882;PG;
Paraguay;1963;;Asuncion;-25.2800459;-57.6343814;PY;
Peru;1963;;Peru;41.3272919;-89.1287636;US;Illinois
Philippines;1963;5505023238.4;Dapitan;8.6549449;123.4243754;PH;Zamboanga del Norte
Poland;1963;;Poland;41.024226;-80.614795;US;Ohio
Portugal;1963;3905734459.7;Portugal;-1.6292632;-45.2368151;BR;Maranhão
Puerto Rico;1963;2333600000.0;Puerto Rico;27.7865973;-15.7117774;ES;
Qatar;1963;;Qatar;39.1074426;47.5061085;IR;East Azerbaijan Province
Romania;1963;;Valeapai Caras-Severin;45.49288425;21.71999265492126;RO;
Rwanda;1963;128000000.0;Rwanda;8.9917947;38.7793214;ET;Addis Ababa
Samoa;1963;;Samoa;40.8187372;-124.1864518;US;California
San Marino;1963;;City of San Marino;43.9363996;12.4466991;SM;
Saudi Arabia;1963;;Saudi Arabia Towers;27.1860382;31.19298082388167;EG;Asyut
Senegal;1963;1122139861.7;Senegal;5.8304643;36.6642147;ET;Southern Nations, Nationalities, and Peoples
Serbia;1963;;Σέρβια;40.1846282;21.9990312;GR;Epirus and Western Macedonia
Seychelles;1963;13923028.5;Seychelles;25.22444045;55.18297256651013;AE;Dubai
Sierra Leone;1963;348700653.6;Freetown;8.479004;-13.26795;SL;Western Area Urban
Singapore;1963;917608012.5;Singapore;1.2899175;103.8519072;SG;
Solomon Islands;1963;;Solomon Islands;-7.9999999;158.9999999;SB;Isabel
Somalia;1963;216145935.9;Somalia;-13.180556;15.266667;AO;Huambo Province
South Africa;1963;10854195658.3;Jimmy Jones;-23.0379481;30.6493787;ZA;Limpopo
Spain;1963;19074913947.7;Santander;9.4170689;123.3351935;PH;Cebu
Sri Lanka;1963;1240672268.9;Sri Lanka;7.877395849999999;80.66247852355892;LK;
St. Lucia;1963;;Saint Lucia;13.90904385;-60.97792414113452;LC;Castries
St. Martin (French part);1963;;Saint Martin (France);18.0814066;-63.0467131;FR;Saint Martin (France)
Sudan;1963;1352011494.3;Sudan;10.9;6.5;NG;Kaduna State
Suriname;1963;125950000.0;Boven Suriname;3.91840165;-55.68355609257517;SR;
Sweden;1963;20204870629.7;Sweden;44.133435;-70.822678;US;Maine
Switzerland;1963;13063643795.8;Switzerland;55.0473993;24.2586917;LT;Kaunas County
Tajikistan;1963;;Tajikistan;37.3878883;68.6641057;TJ;Khatlon Region
Tanzania;1963;;Namanga;-2.5502402;36.7857028;TZ;Arusha
Thailand;1963;3540403456.6;Thailand;7.4931858;124.724704;PH;North Cotabato
Togo;1963;143255813.2;Togo;35.095364;137.042787;JP;
Tonga;1963;;Tonga;4.969409;10.699308;CM;West
Tunisia;1963;;Tunis;36.8002068;10.1857757;TN;Tunis
Turkiye;1963;10355555555.6;Turkey;25.22739495;55.16667799476122;AE;Dubai
Turkmenistan;1963;;"Türkmenistan;Туркменистан";40.4690217;62.2125775;TM;Lebap Region
Uganda;1963;516147798.7;Uganda;11.3163165;4.948482;NG;Niger State
Ukraine;1963;;Pechera;48.852417;28.722033;UA;Vinnytsia Oblast
United Arab Emirates;1963;;United Arab Emirates;25.22773555;55.174999621360726;AE;Dubai
United Kingdom;1963;86561961812.3;United Kingdom;25.22331675;55.15941464826079;AE;Dubai
United States;1963;638600000000.0;United States Minor Outlying Islands;16.7325005;-169.5282535;US;
Uruguay;1963;1553333333.3;Uruguay;-32.5049394;-53.5041115;UY;Cerro Largo
Uzbekistan;1963;;Tashkent;41.3123363;69.2787079;UZ;
Vanuatu;1963;;Vanuatu Abbatoir;-17.6873309;168.3049371;VU;Shefa Province
Viet Nam;1963;;Viet Nam;20.5996992;-76.3971143;CU;Holguín
Yemen, Rep.;1963;;Yaman;15.268007;42.583216;YE;Al Hudaydah Governorate
Zambia;1963;718714285.7;Zambia;-10.9432722;14.1443449;AO;Cuanza Sul Province
Zimbabwe;1963;1159511700.0;Zimbabwe;4.7609886;-6.66608;CI;Bas-Sassandra
Afghanistan;1964;800000044.4;Afghanistan;25.2333938;55.174389025091465;AE;Dubai
Albania;1964;;Albania;5.7587654;-73.9151617;CO;Santander
Algeria;1964;2909316435.3;Algiers;36.7753606;3.0601882;DZ;Algiers
Andorra;1964;;Andorra la Vella;42.5069391;1.5212467;AD;
Angola;1964;;Angola;41.634874;-84.99928;US;Indiana
Argentina;1964;;Argentina;27.0854542;-109.1412408;MX;Sonora
Armenia;1964;;Armenia;4.536307;-75.6723751;CO;Quindío
Aruba;1964;;Aruba;12.51756625;-69.98186415210564;NL;
Australia;1964;23801123808.2;Australia;-31.95260295;152.55512735272188;AU;New South Wales
Austria;1964;9169983885.7;Austria;25.22539605;55.16431379427327;AE;Dubai
Azerbaijan;1964;;Azerbaijan;25.23108035;55.17027266614927;AE;Dubai
Bahamas, The;1964;266666666.7;Lucayan Archipelago;26.6613931;-78.26835346979033;BS;
Bahrain;1964;;Bahrain Island;26.0280409;50.55316820508136;BH;Southern Governorate
Bangladesh;1964;5386054833.3;Bangladesh;-0.2864982;36.0514231;KE;Nakuru
Barbados;1964;;Barbados;13.1899463;-59.559215109754064;BB;
Belarus;1964;;Беларусь;54.3836054;30.4054004;BY;Vitsebsk Region
Belgium;1964;15960106680.7;Belgium;40.0620915;-87.6392353;US;Illinois
Belize;1964;36194586.2;Belize City;17.5000543;-88.2003115;BZ;Belize District
Benin;1964;269819005.9;Benin City;6.3330586;5.6221058;NG;Edo State
Bermuda;1964;107566648.7;Bermuda;32.3018217;-64.7603583;BM;
Bhutan;1964;;bhutan;33.0204804;75.6458366;IN;Jammu and Kashmir
Bolivia;1964;538583333.3;Bolivia;34.0676715;-78.1483283;US;North Carolina
Botswana;1964;41616347.8;Botswana;25.21468695;55.18137698902848;AE;Dubai
Brazil;1964;;Brazil;39.523652;-87.1250154;US;Indiana
Bulgaria;1964;;Bulgaria;44.1141209;12.32615;IT;Emilia-Romagna
Burkina Faso;1964;410321645.0;Family Savadogo;13.4329296;-1.9956277265699776;BF;
Cabo Verde;1964;;Cabo Verde;-21.4743338;-46.3964995;BR;Minas Gerais
Cambodia;1964;782857128.6;Cambodia Town;42.6379684;-71.3213616;US;Massachusetts
Canada;1964;49377522896.7;Cañada;38.6752399;-0.8099623;ES;Valencian Community
Cayman Islands;1964;;Cayman Islands;19.3298691;-81.17122907994889;KY;
Central African Republic;1964;142025078.7;Central African Republic;25.2183959;55.17523857621538;AE;Dubai
Chad;1964;392247517.7;chad;32.7600402;76.0706663;IN;Himachal Pradesh
Channel Islands;1964;;Channel Islands;33.96579515;-120.09189711105296;US;California
Chile;1964;5964195925.4;Chile;7.308692;-61.8478915;VE;Bolivar State
China;1964;59708125203.9;Guangzhou City;23.1301964;113.2592945;CN;Guangdong Province
Colombia;1964;5973366666.7;Colômbia;-20.1774291;-48.6872822;BR;São Paulo
Comoros;1964;;Cômoros;40.1132313;-8.2614827;PT;
Congo, Dem. Rep.;1964;;Congo;-4.3983689;15.403578174981702;CD;Kinshasa
Congo, Rep.;1964;185693724.9;Congo;-4.3983689;15.403578174981702;CD;Kinshasa
Costa Rica;1964;542578367.2;San José;9.9325427;-84.0795782;CR;
Cote d'Ivoire;1964;921063326.3;Côte D'Ivoire;8.97205;17.6395833;TD;Mandoul
Cuba;1964;;Juba City;4.8459246;31.5959173;SS;Central Equatoria
Curacao;1964;;Curaçao;12.21339425;-69.0408499890865;NL;
Cyprus;1964;;Cyprus;35.129393050000004;33.22978295894309;CY;South Cyprus
Denmark;1964;;Town of Denmark;43.899871;-75.582504;US;New York
Djibouti;1964;;Djibouti;11.5936903;43.1472724;DJ;
Dominica;1964;;Dominica;15.4240429;-61.34185329351388;DM;Saint Joseph Parish
Ecuador;1964;2244146103.2;Ecuador;-3.48444;-80.2257543;EC;El Oro
Egypt, Arab Rep.;1964;;Egypt;-27.676714;152.0984108763645;AU;Queensland
El Salvador;1964;;El Salvador;-26.2462114;-69.6259658;CL;Atacama Region
Eritrea;1964;;Barentu;15.1056714;37.5888782;ER;Gash-Barka
Estonia;1964;;Эстония;56.3984817;96.4987629;RU;Krasnoyarsk Krai
Eswatini;1964;64980554.0;Eswatini;25.2164748;55.18185799560048;AE;Dubai
Ethiopia;1964;;Bahir Dar City;11.591367600000002;37.39000433472914;ET;Amhara Region
Faroe Islands;1964;;Faroe Islands;62.19850045;-6.817412433412175;FO;Eysturoy region
Fiji;1964;140032741.5;Fiji Island;44.55220515;-78.16900113841923;CA;Ontario
Finland;1964;7766655085.8;Finland;40.3843304;-75.4203885;US;Pennsylvania
France;1964;94007851047.4;France;46.2337295;5.3538775;FR;Auvergne-Rhône-Alpes
Gabon;1964;215679855.3;Gabon;14.1277147;122.912073;PH;Camarines Norte
Gambia, The;1964;;Gambia;7.5290563;-11.9729409;SL;Bonthe District
Georgia;1964;;Georgia;44.72422295;-73.14704151731551;US;Vermont
Germany;1964;;Germany;31.4399019;-95.350778;US;Texas
Ghana;1964;1740845070.4;Ghana;21.5718877;77.48657152558205;IN;Maharashtra
Gibraltar;1964;;Gibraltar;36.140807;-5.3541295;GI;
Greece;1964;6669673257.1;Town of Greece;43.2097838;-77.6930602;US;New York
Greenland;1964;;Greenland;71.81717990000001;-40.42628783678519;GL;
Grenada;1964;;Granada;37.1734995;-3.5995337;ES;Andalusia
Guam;1964;;Guam;13.4501257;144.75755102972062;US;Guam
Guatemala;1964;1299099900.0;Guatemala City;14.6222328;-90.5185188;GT;Guatemala Department
Guinea;1964;;Guinea;5.15;-1.75;GH;Western Region
Guyana;1964;194774513.1;City of Georgetown;6.8137426;-58.1624465;GY;Demerara-Mahaica
Haiti;1964;325281199.7;Haiti;21.7670269;-78.0947805;CU;Camagüey
Honduras;1964;457000000.0;Honduras;18.1513986;-66.2080216;US;Puerto Rico
Hungary;1964;;Hungary;41.9767629;-72.7789842;US;Connecticut
Iceland;1964;434267936.9;Iceland;39.3733802;-120.029143;US;California
India;1964;56480289941.0;India;2.183333;33.683333;UG;Kapelebyong
Indonesia;1964;;Pulau Bali;-8.456018100000001;115.27038551191184;ID;Bali
Iran, Islamic Rep.;1964;5379845647.7;Tirur;27.3396747;56.9567463;IR;Hormozgan Province
Iraq;1964;2340239343.9;Masif;36.686291;41.994791;IQ;Nineveh Governorate
Ireland;1964;2766608945.9;Ireland;53.4152268;-7.96655398901418;IE;
Isle of Man;1964;;Isle of Man;54.23592075;-4.514766902315387;IM;
Israel;1964;3405333333.3;Nein;32.6307267;35.3488686;IL;North District
Italy;1964;63175417019.0;Italy;32.1840381;-96.8847194;US;Texas
Jamaica;1964;897949000.8;Jamaica;40.7029134;-73.8006429;US;New York
Japan;1964;81749006381.5;Japan;40.9921996;-75.9078749;US;Pennsylvania
Jordan;1964;;Jordan;44.6663146;-93.6261918;US;Minnesota
Kazakhstan;1964;;Aral;46.797985;61.661221;KZ;Kyzylorda Region
Kenya;1964;998759334.5;Namanga;-2.5461733;36.7915635;KE;Kajiado County
Korea, Dem. People's Rep.;1964;;Korea;50.4837993;23.7590924;PL;Lublin Voivodeship
Korea, Rep.;1964;3459019942.8;Korea;50.4837993;23.7590924;PL;Lublin Voivodeship
Kosovo;1964;;Kosovo;42.6202038;21.1561827;XK;
Kuwait;1964;;Kuwait City;29.3796532;47.9734174;KW;Al Asimah
Lebanon;1964;;Lebanon;40.3429683;-76.4233816;US;Pennsylvania
Lesotho;1964;51939979.2;Lesotho;25.21481175;55.183041764491264;AE;Dubai
Liberia;1964;;Liberia;10.6333401;-85.4362722;CR;
Libya;1964;;Libya;25.22041215;55.17041701462804;AE;Dubai
Luxembourg;1964;903158753.9;Luxembourg;49.6112768;6.129799;LU;
Madagascar;1964;802482183.7;Madagascar;-18.77914875;46.71217161656727;MG;Province d’Antananarivo
Malawi;1964;;Malawi;-15.300392;34.701808;MW;Neno
Malaysia;1964;2674423922.5;Malaysia;25.23310645;55.1833741910576;AE;Dubai
Maldives;1964;;Reethi Rah;4.5145134;73.37029931463772;MV;Malé Atoll
Mali;1964;;Malé;4.1779879;73.5107387;MV;
Malta;1964;;Malta;35.90221125;14.413771221238456;MT;Northern Region
Marshall Islands;1964;;Marshall Islands;8.9995549;168.0002575;;
Mauritania;1964;224495743.8;Mauritania;25.21534785;55.16782550577598;AE;Dubai
Mauritius;1964;;Piton;-20.0958533;57.6349749;MU;Rivière du Rempart District
Mexico;1964;20080000000.0;Mexico City;19.4326296;-99.1331785;MX;
Micronesia, Fed. Sts.;1964;;Micronesia;7.0;155.25;;
Moldova;1964;;Moldavia;46.9110939;27.2407723;RO;
Monaco;1964;;Monaco;43.7311424;7.4197576;MC;
Mongolia;1964;;Mongolia;43.9382593;-79.2235563;CA;Ontario
Montenegro;1964;;Montenegro;-29.6826112;-51.4687455;BR;Rio Grande do Sul
Morocco;1964;2798345298.6;Morocco;25.21643135;55.16539122632322;AE;Dubai
Mozambique;1964;;Mozambique;19.058889;-96.254167;MX;Veracruz
Myanmar;1964;411419905.8;Burma;25.2335648;55.17769106950793;AE;Dubai
Namibia;1964;;Namibia;25.21294965;55.179690756441246;AE;Dubai
Nauru;1964;;Nauru;-0.52832605;166.93091238321813;NR;Buada
Nepal;1964;496098775.3;Nepal;31.2496266;73.6632218;PK;Punjab
Netherlands;1964;18699380731.3;Netherlands;36.2993736;-89.7510062;US;Missouri
New Caledonia;1964;;New Caledonia;33.0551363;-92.6676556;US;Arkansas
New Zealand;1964;7274144350.8;New Zealand;46.4099904;-62.313043;CA;Prince Edward Island
Nicaragua;1964;;Nicaragua;28.3929796;-109.9816718;MX;Sonora
Niger;1964;582816396.4;Niger;25.21715185;55.17065374295412;AE;Dubai
Nigeria;1964;5552931318.8;Nigeria;25.21490645;55.174787069501136;AE;Dubai
Norway;1964;7159202706.5;Norway;41.9027805;-91.9215691;US;Iowa
Oman;1964;;Oman;22.17;58.0;OM;Ad Dakhiliyah Governorate
Pakistan;1964;5204955900.9;khuian;33.0281858;72.0575345;PK;Punjab
Palau;1964;;Palau-del-Vidre;42.5717989;2.9600905;FR;Occitania
Panama;1964;776137500.0;Panama;8.9714493;-79.5341802;PA;Panamá
Papua New Guinea;1964;305312048.8;New Guinea;-5.522593049999999;142.08709052245882;PG;
Paraguay;1964;;Asuncion;-25.2800459;-57.6343814;PY;
Peru;1964;;Peru;41.3272919;-89.1287636;US;Illinois
Philippines;1964;5953756194.8;Dapitan;8.6549449;123.4243754;PH;Zamboanga del Norte
Poland;1964;;Poland;41.024226;-80.614795;US;Ohio
Portugal;1964;4235608177.7;Portugal;-1.6292632;-45.2368151;BR;Maranhão
Puerto Rico;1964;2570500000.0;Puerto Rico;27.7865973;-15.7117774;ES;
Qatar;1964;;Qatar;39.1074426;47.5061085;IR;East Azerbaijan Province
Romania;1964;;Valeapai Caras-Severin;45.49288425;21.71999265492126;RO;
Rwanda;1964;129999994.0;Rwanda;8.9917947;38.7793214;ET;Addis Ababa
Samoa;1964;;Samoa;40.8187372;-124.1864518;US;California
San Marino;1964;;City of San Marino;43.9363996;12.4466991;SM;
Saudi Arabia;1964;;Saudi Arabia Towers;27.1860382;31.19298082388167;EG;Asyut
Senegal;1964;1188930645.3;Senegal;5.8304643;36.6642147;ET;Southern Nations, Nationalities, and Peoples
Serbia;1964;;Σέρβια;40.1846282;21.9990312;GR;Epirus and Western Macedonia
Seychelles;1964;15393031.6;Seychelles;25.22444045;55.18297256651013;AE;Dubai
Sierra Leone;1964;372012091.5;Freetown;8.479004;-13.26795;SL;Western Area Urban
Singapore;1964;894153311.4;Singapore;1.2899175;103.8519072;SG;
Solomon Islands;1964;;Solomon Islands;-7.9999999;158.9999999;SB;Isabel
Somalia;1964;229529912.7;Somalia;-13.180556;15.266667;AO;Huambo Province
South Africa;1964;11955995217.6;Jimmy Jones;-23.0379481;30.6493787;ZA;Limpopo
Spain;1964;21343844643.7;Santander;9.4170689;123.3351935;PH;Cebu
Sri Lanka;1964;1309747899.2;Sri Lanka;7.877395849999999;80.66247852355892;LK;
St. Lucia;1964;;Saint Lucia;13.90904385;-60.97792414113452;LC;Castries
St. Martin (French part);1964;;Saint Martin (France);18.0814066;-63.0467131;FR;Saint Martin (France)
Sudan;1964;1389080459.8;Sudan;10.9;6.5;NG;Kaduna State
Suriname;1964;134400000.0;Boven Suriname;3.91840165;-55.68355609257517;SR;
Sweden;1964;22532416750.0;Sweden;44.133435;-70.822678;US;Maine
Switzerland;1964;14480556571.5;Switzerland;55.0473993;24.2586917;LT;Kaunas County
Tajikistan;1964;;Tajikistan;37.3878883;68.6641057;TJ;Khatlon Region
Tanzania;1964;;Namanga;-2.5502402;36.7857028;TZ;Arusha
Thailand;1964;3889129942.3;Thailand;7.4931858;124.724704;PH;North Cotabato
Togo;1964;166104078.5;Togo;35.095364;137.042787;JP;
Tonga;1964;;Tonga;4.969409;10.699308;CM;West
Tunisia;1964;;Tunis;36.8002068;10.1857757;TN;Tunis
Turkiye;1964;11177777777.8;Turkey;25.22739495;55.16667799476122;AE;Dubai
Turkmenistan;1964;;"Türkmenistan;Туркменистан";40.4690217;62.2125775;TM;Lebap Region
Uganda;1964;589056603.8;Uganda;11.3163165;4.948482;NG;Niger State
Ukraine;1964;;Pechera;48.852417;28.722033;UA;Vinnytsia Oblast
United Arab Emirates;1964;;United Arab Emirates;25.22773555;55.174999621360726;AE;Dubai
United Kingdom;1964;94407558351.2;United Kingdom;25.22331675;55.15941464826079;AE;Dubai
United States;1964;685800000000.0;United States Minor Outlying Islands;16.7325005;-169.5282535;US;
Uruguay;1964;1970588235.3;Uruguay;-32.5049394;-53.5041115;UY;Cerro Largo
Uzbekistan;1964;;Tashkent;41.3123363;69.2787079;UZ;
Vanuatu;1964;;Vanuatu Abbatoir;-17.6873309;168.3049371;VU;Shefa Province
Viet Nam;1964;;Viet Nam;20.5996992;-76.3971143;CU;Holguín
Yemen, Rep.;1964;;Yaman;15.268007;42.583216;YE;Al Hudaydah Governorate
Zambia;1964;839428571.4;Zambia;-10.9432722;14.1443449;AO;Cuanza Sul Province
Zimbabwe;1964;1217138000.0;Zimbabwe;4.7609886;-6.66608;CI;Bas-Sassandra
Afghanistan;1965;1006666637.8;Afghanistan;25.2333938;55.174389025091465;AE;Dubai
Albania;1965;;Albania;5.7587654;-73.9151617;CO;Santander
Algeria;1965;3136284306.9;Algiers;36.7753606;3.0601882;DZ;Algiers
Andorra;1965;;Andorra la Vella;42.5069391;1.5212467;AD;
Angola;1965;;Angola;41.634874;-84.99928;US;Indiana
Argentina;1965;;Argentina;27.0854542;-109.1412408;MX;Sonora
Armenia;1965;;Armenia;4.536307;-75.6723751;CO;Quindío
Aruba;1965;;Aruba;12.51756625;-69.98186415210564;NL;
Australia;1965;25976164156.2;Australia;-31.95260295;152.55512735272188;AU;New South Wales
Austria;1965;9994070615.9;Austria;25.22539605;55.16431379427327;AE;Dubai
Azerbaijan;1965;;Azerbaijan;25.23108035;55.17027266614927;AE;Dubai
Bahamas, The;1965;300392156.9;Lucayan Archipelago;26.6613931;-78.26835346979033;BS;
Bahrain;1965;;Bahrain Island;26.0280409;50.55316820508136;BH;Southern Governorate
Bangladesh;1965;5906636791.7;Bangladesh;-0.2864982;36.0514231;KE;Nakuru
Barbados;1965;;Barbados;13.1899463;-59.559215109754064;BB;
Belarus;1965;;Беларусь;54.3836054;30.4054004;BY;Vitsebsk Region
Belgium;1965;17371457607.9;Belgium;40.0620915;-87.6392353;US;Illinois
Belize;1965;40110040.1;Belize City;17.5000543;-88.2003115;BZ;Belize District
Benin;1965;289908680.4;Benin City;6.3330586;5.6221058;NG;Edo State
Bermuda;1965;114339050.3;Bermuda;32.3018217;-64.7603583;BM;
Bhutan;1965;;bhutan;33.0204804;75.6458366;IN;Jammu and Kashmir
Bolivia;1965;598333333.3;Bolivia;34.0676715;-78.1483283;US;North Carolina
Botswana;1965;45788696.3;Botswana;25.21468695;55.18137698902848;AE;Dubai
Brazil;1965;;Brazil;39.523652;-87.1250154;US;Indiana
Bulgaria;1965;;Bulgaria;44.1141209;12.32615;IT;Emilia-Romagna
Burkina Faso;1965;422916789.7;Family Savadogo;13.4329296;-1.9956277265699776;BF;
Cabo Verde;1965;;Cabo Verde;-21.4743338;-46.3964995;BR;Minas Gerais
Cambodia;1965;868571428.6;Cambodia Town;42.6379684;-71.3213616;US;Massachusetts
Canada;1965;54515179580.7;Cañada;38.6752399;-0.8099623;ES;Valencian Community
Cayman Islands;1965;;Cayman Islands;19.3298691;-81.17122907994889;KY;
Central African Republic;1965;150574795.4;Central African Republic;25.2183959;55.17523857621538;AE;Dubai
Chad;1965;416926303.3;chad;32.7600402;76.0706663;IN;Himachal Pradesh
Channel Islands;1965;;Channel Islands;33.96579515;-120.09189711105296;US;California
Chile;1965;6108679125.8;Chile;7.308692;-61.8478915;VE;Bolivar State
China;1965;70436008642.4;Guangzhou City;23.1301964;113.2592945;CN;Guangdong Province
Colombia;1965;5760761904.8;Colômbia;-20.1774291;-48.6872822;BR;São Paulo
Comoros;1965;;Cômoros;40.1132313;-8.2614827;PT;
Congo, Dem. Rep.;1965;;Congo;-4.3983689;15.403578174981702;CD;Kinshasa
Congo, Rep.;1965;198318064.0;Congo;-4.3983689;15.403578174981702;CD;Kinshasa
Costa Rica;1965;592981162.3;San José;9.9325427;-84.0795782;CR;
Cote d'Ivoire;1965;919771228.0;Côte D'Ivoire;8.97205;17.6395833;TD;Mandoul
Cuba;1965;;Juba City;4.8459246;31.5959173;SS;Central Equatoria
Curacao;1965;;Curaçao;12.21339425;-69.0408499890865;NL;
Cyprus;1965;;Cyprus;35.129393050000004;33.22978295894309;CY;South Cyprus
Denmark;1965;;Town of Denmark;43.899871;-75.582504;US;New York
Djibouti;1965;;Djibouti;11.5936903;43.1472724;DJ;
Dominica;1965;;Dominica;15.4240429;-61.34185329351388;DM;Saint Joseph Parish
Ecuador;1965;2387047395.7;Ecuador;-3.48444;-80.2257543;EC;El Oro
Egypt, Arab Rep.;1965;4948667540.4;Egypt;-27.676714;152.0984108763645;AU;Queensland
El Salvador;1965;877720000.0;El Salvador;-26.2462114;-69.6259658;CL;Atacama Region
Eritrea;1965;;Barentu;15.1056714;37.5888782;ER;Gash-Barka
Estonia;1965;;Эстония;56.3984817;96.4987629;RU;Krasnoyarsk Krai
Eswatini;1965;70279971.9;Eswatini;25.2164748;55.18185799560048;AE;Dubai
Ethiopia;1965;;Bahir Dar City;11.591367600000002;37.39000433472914;ET;Amhara Region
Faroe Islands;1965;57954522.4;Faroe Islands;62.19850045;-6.817412433412175;FO;Eysturoy region
Fiji;1965;147084750.0;Fiji Island;44.55220515;-78.16900113841923;CA;Ontario
Finland;1965;8589340019.0;Finland;40.3843304;-75.4203885;US;Pennsylvania
France;1965;101537248148.4;France;46.2337295;5.3538775;FR;Auvergne-Rhône-Alpes
Gabon;1965;226474285.8;Gabon;14.1277147;122.912073;PH;Camarines Norte
Gambia, The;1965;;Gambia;7.5290563;-11.9729409;SL;Bonthe District
Georgia;1965;;Georgia;44.72422295;-73.14704151731551;US;Vermont
Germany;1965;;Germany;31.4399019;-95.350778;US;Texas
Ghana;1965;2064788732.4;Ghana;21.5718877;77.48657152558205;IN;Maharashtra
Gibraltar;1965;;Gibraltar;36.140807;-5.3541295;GI;
Greece;1965;7689154053.4;Town of Greece;43.2097838;-77.6930602;US;New York
Greenland;1965;;Greenland;71.81717990000001;-40.42628783678519;GL;
Grenada;1965;;Granada;37.1734995;-3.5995337;ES;Andalusia
Guam;1965;;Guam;13.4501257;144.75755102972062;US;Guam
Guatemala;1965;1331399900.0;Guatemala City;14.6222328;-90.5185188;GT;Guatemala Department
Guinea;1965;;Guinea;5.15;-1.75;GH;Western Region
Guyana;1965;213235294.1;City of Georgetown;6.8137426;-58.1624465;GY;Demerara-Mahaica
Haiti;1965;353251799.7;Haiti;21.7670269;-78.0947805;CU;Camagüey
Honduras;1965;508650000.0;Honduras;18.1513986;-66.2080216;US;Puerto Rico
Hungary;1965;;Hungary;41.9767629;-72.7789842;US;Connecticut
Iceland;1965;523694949.4;Iceland;39.3733802;-120.029143;US;California
India;1965;59554854575.8;India;2.183333;33.683333;UG;Kapelebyong
Indonesia;1965;;Pulau Bali;-8.456018100000001;115.27038551191184;ID;Bali
Iran, Islamic Rep.;1965;6197319929.0;Tirur;27.3396747;56.9567463;IR;Hormozgan Province
Iraq;1965;;Masif;36.686291;41.994791;IQ;Nineveh Governorate
Ireland;1965;2945704143.0;Ireland;53.4152268;-7.96655398901418;IE;
Isle of Man;1965;;Isle of Man;54.23592075;-4.514766902315387;IM;
Israel;1965;3663333333.3;Nein;32.6307267;35.3488686;IL;North District
Italy;1965;67978153850.5;Italy;32.1840381;-96.8847194;US;Texas
Jamaica;1965;972159611.1;Jamaica;40.7029134;-73.8006429;US;New York
Japan;1965;90950278257.8;Japan;40.9921996;-75.9078749;US;Pennsylvania
Jordan;1965;599759760.1;Jordan;44.6663146;-93.6261918;US;Minnesota
Kazakhstan;1965;;Aral;46.797985;61.661221;KZ;Kyzylorda Region
Kenya;1965;997919320.8;Namanga;-2.5461733;36.7915635;KE;Kajiado County
Korea, Dem. People's Rep.;1965;;Korea;50.4837993;23.7590924;PL;Lublin Voivodeship
Korea, Rep.;1965;3120861498.9;Korea;50.4837993;23.7590924;PL;Lublin Voivodeship
Kosovo;1965;;Kosovo;42.6202038;21.1561827;XK;
Kuwait;1965;2097199161.1;Kuwait City;29.3796532;47.9734174;KW;Al Asimah
Lebanon;1965;;Lebanon;40.3429683;-76.4233816;US;Pennsylvania
Lesotho;1965;54879978.0;Lesotho;25.21481175;55.183041764491264;AE;Dubai
Liberia;1965;;Liberia;10.6333401;-85.4362722;CR;
Libya;1965;;Libya;25.22041215;55.17041701462804;AE;Dubai
Luxembourg;1965;921600736.3;Luxembourg;49.6112768;6.129799;LU;
Madagascar;1965;833563473.0;Madagascar;-18.77914875;46.71217161656727;MG;Province d’Antananarivo
Malawi;1965;;Malawi;-15.300392;34.701808;MW;Neno
Malaysia;1965;2956337669.3;Malaysia;25.23310645;55.1833741910576;AE;Dubai
Maldives;1965;;Reethi Rah;4.5145134;73.37029931463772;MV;Malé Atoll
Mali;1965;;Malé;4.1779879;73.5107387;MV;
Malta;1965;;Malta;35.90221125;14.413771221238456;MT;Northern Region
Marshall Islands;1965;;Marshall Islands;8.9995549;168.0002575;;
Mauritania;1965;255340475.0;Mauritania;25.21534785;55.16782550577598;AE;Dubai
Mauritius;1965;;Piton;-20.0958533;57.6349749;MU;Rivière du Rempart District
Mexico;1965;21840000000.0;Mexico City;19.4326296;-99.1331785;MX;
Micronesia, Fed. Sts.;1965;;Micronesia;7.0;155.25;;
Moldova;1965;;Moldavia;46.9110939;27.2407723;RO;
Monaco;1965;;Monaco;43.7311424;7.4197576;MC;
Mongolia;1965;;Mongolia;43.9382593;-79.2235563;CA;Ontario
Montenegro;1965;;Montenegro;-29.6826112;-51.4687455;BR;Rio Grande do Sul
Morocco;1965;2948331090.5;Morocco;25.21643135;55.16539122632322;AE;Dubai
Mozambique;1965;;Mozambique;19.058889;-96.254167;MX;Veracruz
Myanmar;1965;367053111.3;Burma;25.2335648;55.17769106950793;AE;Dubai
Namibia;1965;;Namibia;25.21294965;55.179690756441246;AE;Dubai
Nauru;1965;;Nauru;-0.52832605;166.93091238321813;NR;Buada
Nepal;1965;735267081.7;Nepal;31.2496266;73.6632218;PK;Punjab
Netherlands;1965;21000586933.2;Netherlands;36.2993736;-89.7510062;US;Missouri
New Caledonia;1965;159594492.5;New Caledonia;33.0551363;-92.6676556;US;Arkansas
New Zealand;1965;5654463586.0;New Zealand;46.4099904;-62.313043;CA;Prince Edward Island
Nicaragua;1965;;Nicaragua;28.3929796;-109.9816718;MX;Sonora
Niger;1965;673383510.8;Niger;25.21715185;55.17065374295412;AE;Dubai
Nigeria;1965;5874537650.2;Nigeria;25.21490645;55.174787069501136;AE;Dubai
Norway;1965;8058681060.2;Norway;41.9027805;-91.9215691;US;Iowa
Oman;1965;63279974.7;Oman;22.17;58.0;OM;Ad Dakhiliyah Governorate
Pakistan;1965;5929231415.4;khuian;33.0281858;72.0575345;PK;Punjab
Palau;1965;;Palau-del-Vidre;42.5717989;2.9600905;FR;Occitania
Panama;1965;852485300.0;Panama;8.9714493;-79.5341802;PA;Panamá
Papua New Guinea;1965;344176055.1;New Guinea;-5.522593049999999;142.08709052245882;PG;
Paraguay;1965;443587301.6;Asuncion;-25.2800459;-57.6343814;PY;
Peru;1965;;Peru;41.3272919;-89.1287636;US;Illinois
Philippines;1965;6517349771.9;Dapitan;8.6549449;123.4243754;PH;Zamboanga del Norte
Poland;1965;;Poland;41.024226;-80.614795;US;Ohio
Portugal;1965;4687464054.8;Portugal;-1.6292632;-45.2368151;BR;Maranhão
Puerto Rico;1965;2881500000.0;Puerto Rico;27.7865973;-15.7117774;ES;
Qatar;1965;;Qatar;39.1074426;47.5061085;IR;East Azerbaijan Province
Romania;1965;;Valeapai Caras-Severin;45.49288425;21.71999265492126;RO;
Rwanda;1965;148799980.0;Rwanda;8.9917947;38.7793214;ET;Addis Ababa
Samoa;1965;;Samoa;40.8187372;-124.1864518;US;California
San Marino;1965;;City of San Marino;43.9363996;12.4466991;SM;
Saudi Arabia;1965;;Saudi Arabia Towers;27.1860382;31.19298082388167;EG;Asyut
Senegal;1965;1210058228.2;Senegal;5.8304643;36.6642147;ET;Southern Nations, Nationalities, and Peoples
Serbia;1965;;Σέρβια;40.1846282;21.9990312;GR;Epirus and Western Macedonia
Seychelles;1965;15603032.0;Seychelles;25.22444045;55.18297256651013;AE;Dubai
Sierra Leone;1965;359523809.5;Freetown;8.479004;-13.26795;SL;Western Area Urban
Singapore;1965;974644096.1;Singapore;1.2899175;103.8519072;SG;
Solomon Islands;1965;;Solomon Islands;-7.9999999;158.9999999;SB;Isabel
Somalia;1965;243725898.0;Somalia;-13.180556;15.266667;AO;Huambo Province
South Africa;1965;13068994772.4;Jimmy Jones;-23.0379481;30.6493787;ZA;Limpopo
Spain;1965;24756958694.9;Santander;9.4170689;123.3351935;PH;Cebu
Sri Lanka;1965;1698319327.7;Sri Lanka;7.877395849999999;80.66247852355892;LK;
St. Lucia;1965;;Saint Lucia;13.90904385;-60.97792414113452;LC;Castries
St. Martin (French part);1965;;Saint Martin (France);18.0814066;-63.0467131;FR;Saint Martin (France)
Sudan;1965;1447701149.4;Sudan;10.9;6.5;NG;Kaduna State
Suriname;1965;154150000.0;Boven Suriname;3.91840165;-55.68355609257517;SR;
Sweden;1965;24795499685.8;Sweden;44.133435;-70.822678;US;Maine
Switzerland;1965;15346741669.8;Switzerland;55.0473993;24.2586917;LT;Kaunas County
Tajikistan;1965;;Tajikistan;37.3878883;68.6641057;TJ;Khatlon Region
Tanzania;1965;;Namanga;-2.5502402;36.7857028;TZ;Arusha
Thailand;1965;4388937649.0;Thailand;7.4931858;124.724704;PH;North Cotabato
Togo;1965;187300310.4;Togo;35.095364;137.042787;JP;
Tonga;1965;;Tonga;4.969409;10.699308;CM;West
Tunisia;1965;991047619.0;Tunis;36.8002068;10.1857757;TN;Tunis
Turkiye;1965;11966666666.7;Turkey;25.22739495;55.16667799476122;AE;Dubai
Turkmenistan;1965;;"Türkmenistan;Туркменистан";40.4690217;62.2125775;TM;Lebap Region
Uganda;1965;884502310.0;Uganda;11.3163165;4.948482;NG;Niger State
Ukraine;1965;;Pechera;48.852417;28.722033;UA;Vinnytsia Oblast
United Arab Emirates;1965;;United Arab Emirates;25.22773555;55.174999621360726;AE;Dubai
United Kingdom;1965;101824755079.0;United Kingdom;25.22331675;55.15941464826079;AE;Dubai
United States;1965;743700000000.0;United States Minor Outlying Islands;16.7325005;-169.5282535;US;
Uruguay;1965;1893103448.3;Uruguay;-32.5049394;-53.5041115;UY;Cerro Largo
Uzbekistan;1965;;Tashkent;41.3123363;69.2787079;UZ;
Vanuatu;1965;;Vanuatu Abbatoir;-17.6873309;168.3049371;VU;Shefa Province
Viet Nam;1965;;Viet Nam;20.5996992;-76.3971143;CU;Holguín
Yemen, Rep.;1965;;Yaman;15.268007;42.583216;YE;Al Hudaydah Governorate
Zambia;1965;1082857142.9;Zambia;-10.9432722;14.1443449;AO;Cuanza Sul Province
Zimbabwe;1965;1311435800.0;Zimbabwe;4.7609886;-6.66608;CI;Bas-Sassandra
Afghanistan;1966;1399999966.7;Afghanistan;25.2333938;55.174389025091465;AE;Dubai
Albania;1966;;Albania;5.7587654;-73.9151617;CO;Santander
Algeria;1966;3039859187.5;Algiers;36.7753606;3.0601882;DZ;Algiers
Andorra;1966;;Andorra la Vella;42.5069391;1.5212467;AD;
Angola;1966;;Angola;41.634874;-84.99928;US;Indiana
Argentina;1966;;Argentina;27.0854542;-109.1412408;MX;Sonora
Armenia;1966;;Armenia;4.536307;-75.6723751;CO;Quindío
Aruba;1966;;Aruba;12.51756625;-69.98186415210564;NL;
Australia;1966;27307844369.3;Australia;-31.95260295;152.55512735272188;AU;New South Wales
Austria;1966;10887682273.1;Austria;25.22539605;55.16431379427327;AE;Dubai
Azerbaijan;1966;;Azerbaijan;25.23108035;55.17027266614927;AE;Dubai
Bahamas, The;1966;340000000.0;Lucayan Archipelago;26.6613931;-78.26835346979033;BS;
Bahrain;1966;;Bahrain Island;26.0280409;50.55316820508136;BH;Southern Governorate
Bangladesh;1966;6439687854.2;Bangladesh;-0.2864982;36.0514231;KE;Nakuru
Barbados;1966;;Barbados;13.1899463;-59.559215109754064;BB;
Belarus;1966;;Беларусь;54.3836054;30.4054004;BY;Vitsebsk Region
Belgium;1966;18651883472.5;Belgium;40.0620915;-87.6392353;US;Illinois
Belize;1966;44450044.5;Belize City;17.5000543;-88.2003115;BZ;Belize District
Benin;1966;302925235.2;Benin City;6.3330586;5.6221058;NG;Edo State
Bermuda;1966;134173375.3;Bermuda;32.3018217;-64.7603583;BM;
Bhutan;1966;;bhutan;33.0204804;75.6458366;IN;Jammu and Kashmir
Bolivia;1966;662500000.0;Bolivia;34.0676715;-78.1483283;US;North Carolina
Botswana;1966;51465655.4;Botswana;25.21468695;55.18137698902848;AE;Dubai
Brazil;1966;;Brazil;39.523652;-87.1250154;US;Indiana
Bulgaria;1966;;Bulgaria;44.1141209;12.32615;IT;Emilia-Romagna
Burkina Faso;1966;433889766.2;Family Savadogo;13.4329296;-1.9956277265699776;BF;
Cabo Verde;1966;;Cabo Verde;-21.4743338;-46.3964995;BR;Minas Gerais
Cambodia;1966;914285714.3;Cambodia Town;42.6379684;-71.3213616;US;Massachusetts
Canada;1966;61088384036.7;Cañada;38.6752399;-0.8099623;ES;Valencian Community
Cayman Islands;1966;;Cayman Islands;19.3298691;-81.17122907994889;KY;
Central African Republic;1966;157930018.1;Central African Republic;25.2183959;55.17523857621538;AE;Dubai
Chad;1966;432794921.7;chad;32.7600402;76.0706663;IN;Himachal Pradesh
Channel Islands;1966;;Channel Islands;33.96579515;-120.09189711105296;US;California
Chile;1966;7162633082.3;Chile;7.308692;-61.8478915;VE;Bolivar State
China;1966;76720005491.9;Guangzhou City;23.1301964;113.2592945;CN;Guangdong Province
Colombia;1966;5428518518.5;Colômbia;-20.1774291;-48.6872822;BR;São Paulo
Comoros;1966;;Cômoros;40.1132313;-8.2614827;PT;
Congo, Dem. Rep.;1966;;Congo;-4.3983689;15.403578174981702;CD;Kinshasa
Congo, Rep.;1966;220613582.0;Congo;-4.3983689;15.403578174981702;CD;Kinshasa
Costa Rica;1966;647305630.2;San José;9.9325427;-84.0795782;CR;
Cote d'Ivoire;1966;1024102881.9;Côte D'Ivoire;8.97205;17.6395833;TD;Mandoul
Cuba;1966;;Juba City;4.8459246;31.5959173;SS;Central Equatoria
Curacao;1966;;Curaçao;12.21339425;-69.0408499890865;NL;
Cyprus;1966;;Cyprus;35.129393050000004;33.22978295894309;CY;South Cyprus
Denmark;1966;11931739858.7;Town of Denmark;43.899871;-75.582504;US;New York
Djibouti;1966;;Djibouti;11.5936903;43.1472724;DJ;
Dominica;1966;;Dominica;15.4240429;-61.34185329351388;DM;Saint Joseph Parish
Ecuador;1966;2429308638.8;Ecuador;-3.48444;-80.2257543;EC;El Oro
Egypt, Arab Rep.;1966;5278005611.9;Egypt;-27.676714;152.0984108763645;AU;Queensland
El Salvador;1966;929520000.0;El Salvador;-26.2462114;-69.6259658;CL;Atacama Region
Eritrea;1966;;Barentu;15.1056714;37.5888782;ER;Gash-Barka
Estonia;1966;;Эстония;56.3984817;96.4987629;RU;Krasnoyarsk Krai
Eswatini;1966;76859969.3;Eswatini;25.2164748;55.18185799560048;AE;Dubai
Ethiopia;1966;;Bahir Dar City;11.591367600000002;37.39000433472914;ET;Amhara Region
Faroe Islands;1966;64397131.1;Faroe Islands;62.19850045;-6.817412433412175;FO;Eysturoy region
Fiji;1966;150603925.5;Fiji Island;44.55220515;-78.16900113841923;CA;Ontario
Finland;1966;9208524504.9;Finland;40.3843304;-75.4203885;US;Pennsylvania
France;1966;110045852177.9;France;46.2337295;5.3538775;FR;Auvergne-Rhône-Alpes
Gabon;1966;245849781.3;Gabon;14.1277147;122.912073;PH;Camarines Norte
Gambia, The;1966;44212081.4;Gambia;7.5290563;-11.9729409;SL;Bonthe District
Georgia;1966;;Georgia;44.72422295;-73.14704151731551;US;Vermont
Germany;1966;;Germany;31.4399019;-95.350778;US;Texas
Ghana;1966;2138028169.0;Ghana;21.5718877;77.48657152558205;IN;Maharashtra
Gibraltar;1966;;Gibraltar;36.140807;-5.3541295;GI;
Greece;1966;8591517943.6;Town of Greece;43.2097838;-77.6930602;US;New York
Greenland;1966;;Greenland;71.81717990000001;-40.42628783678519;GL;
Grenada;1966;;Granada;37.1734995;-3.5995337;ES;Andalusia
Guam;1966;;Guam;13.4501257;144.75755102972062;US;Guam
Guatemala;1966;1390700000.0;Guatemala City;14.6222328;-90.5185188;GT;Guatemala Department
Guinea;1966;;Guinea;5.15;-1.75;GH;Western Region
Guyana;1966;228705882.4;City of Georgetown;6.8137426;-58.1624465;GY;Demerara-Mahaica
Haiti;1966;368948599.7;Haiti;21.7670269;-78.0947805;CU;Camagüey
Honduras;1966;549950000.0;Honduras;18.1513986;-66.2080216;US;Puerto Rico
Hungary;1966;;Hungary;41.9767629;-72.7789842;US;Connecticut
Iceland;1966;628893310.4;Iceland;39.3733802;-120.029143;US;California
India;1966;45865462034.3;India;2.183333;33.683333;UG;Kapelebyong
Indonesia;1966;;Pulau Bali;-8.456018100000001;115.27038551191184;ID;Bali
Iran, Islamic Rep.;1966;6789938671.8;Tirur;27.3396747;56.9567463;IR;Hormozgan Province
Iraq;1966;;Masif;36.686291;41.994791;IQ;Nineveh Governorate
Ireland;1966;3104034393.2;Ireland;53.4152268;-7.96655398901418;IE;
Isle of Man;1966;;Isle of Man;54.23592075;-4.514766902315387;IM;
Israel;1966;3980000000.0;Nein;32.6307267;35.3488686;IL;North District
Italy;1966;73654870011.3;Italy;32.1840381;-96.8847194;US;Texas
Jamaica;1966;1096759561.3;Jamaica;40.7029134;-73.8006429;US;New York
Japan;1966;105628070343.1;Japan;40.9921996;-75.9078749;US;Pennsylvania
Jordan;1966;657999736.8;Jordan;44.6663146;-93.6261918;US;Minnesota
Kazakhstan;1966;;Aral;46.797985;61.661221;KZ;Kyzylorda Region
Kenya;1966;1164519674.2;Namanga;-2.5461733;36.7915635;KE;Kajiado County
Korea, Dem. People's Rep.;1966;;Korea;50.4837993;23.7590924;PL;Lublin Voivodeship
Korea, Rep.;1966;3929055143.5;Korea;50.4837993;23.7590924;PL;Lublin Voivodeship
Kosovo;1966;;Kosovo;42.6202038;21.1561827;XK;
Kuwait;1966;2391199043.5;Kuwait City;29.3796532;47.9734174;KW;Al Asimah
Lebanon;1966;;Lebanon;40.3429683;-76.4233816;US;Pennsylvania
Lesotho;1966;56699977.3;Lesotho;25.21481175;55.183041764491264;AE;Dubai
Liberia;1966;;Liberia;10.6333401;-85.4362722;CR;
Libya;1966;;Libya;25.22041215;55.17041701462804;AE;Dubai
Luxembourg;1966;968440149.5;Luxembourg;49.6112768;6.129799;LU;
Madagascar;1966;900264584.6;Madagascar;-18.77914875;46.71217161656727;MG;Province d’Antananarivo
Malawi;1966;;Malawi;-15.300392;34.701808;MW;Neno
Malaysia;1966;3143517943.8;Malaysia;25.23310645;55.1833741910576;AE;Dubai
Maldives;1966;;Reethi Rah;4.5145134;73.37029931463772;MV;Malé Atoll
Mali;1966;;Malé;4.1779879;73.5107387;MV;
Malta;1966;;Malta;35.90221125;14.413771221238456;MT;Northern Region
Marshall Islands;1966;;Marshall Islands;8.9995549;168.0002575;;
Mauritania;1966;266533605.2;Mauritania;25.21534785;55.16782550577598;AE;Dubai
Mauritius;1966;;Piton;-20.0958533;57.6349749;MU;Rivière du Rempart District
Mexico;1966;24320000000.0;Mexico City;19.4326296;-99.1331785;MX;
Micronesia, Fed. Sts.;1966;;Micronesia;7.0;155.25;;
Moldova;1966;;Moldavia;46.9110939;27.2407723;RO;
Monaco;1966;;Monaco;43.7311424;7.4197576;MC;
Mongolia;1966;;Mongolia;43.9382593;-79.2235563;CA;Ontario
Montenegro;1966;;Montenegro;-29.6826112;-51.4687455;BR;Rio Grande do Sul
Morocco;1966;2876401297.1;Morocco;25.21643135;55.16539122632322;AE;Dubai
Mozambique;1966;;Mozambique;19.058889;-96.254167;MX;Veracruz
Myanmar;1966;293103482.4;Burma;25.2335648;55.17769106950793;AE;Dubai
Namibia;1966;;Namibia;25.21294965;55.179690756441246;AE;Dubai
Nauru;1966;;Nauru;-0.52832605;166.93091238321813;NR;Buada
Nepal;1966;906811943.8;Nepal;31.2496266;73.6632218;PK;Punjab
Netherlands;1966;22867203317.4;Netherlands;36.2993736;-89.7510062;US;Missouri
New Caledonia;1966;164206536.4;New Caledonia;33.0551363;-92.6676556;US;Arkansas
New Zealand;1966;5863733231.0;New Zealand;46.4099904;-62.313043;CA;Prince Edward Island
Nicaragua;1966;;Nicaragua;28.3929796;-109.9816718;MX;Sonora
Niger;1966;702296078.6;Niger;25.21715185;55.17065374295412;AE;Dubai
Nigeria;1966;6366917453.2;Nigeria;25.21490645;55.174787069501136;AE;Dubai
Norway;1966;8696460205.3;Norway;41.9027805;-91.9215691;US;Iowa
Oman;1966;67759972.9;Oman;22.17;58.0;OM;Ad Dakhiliyah Governorate
Pakistan;1966;6561108777.8;khuian;33.0281858;72.0575345;PK;Punjab
Palau;1966;;Palau-del-Vidre;42.5717989;2.9600905;FR;Occitania
Panama;1966;928833000.0;Panama;8.9714493;-79.5341802;PA;Panamá
Papua New Guinea;1966;390992062.6;New Guinea;-5.522593049999999;142.08709052245882;PG;
Paraguay;1966;465888888.9;Asuncion;-25.2800459;-57.6343814;PY;
Peru;1966;;Peru;41.3272919;-89.1287636;US;Illinois
Philippines;1966;7189017887.7;Dapitan;8.6549449;123.4243754;PH;Zamboanga del Norte
Poland;1966;;Poland;41.024226;-80.614795;US;Ohio
Portugal;1966;5135387846.0;Portugal;-1.6292632;-45.2368151;BR;Maranhão
Puerto Rico;1966;3170500000.0;Puerto Rico;27.7865973;-15.7117774;ES;
Qatar;1966;;Qatar;39.1074426;47.5061085;IR;East Azerbaijan Province
Romania;1966;;Valeapai Caras-Severin;45.49288425;21.71999265492126;RO;
Rwanda;1966;124525702.9;Rwanda;8.9917947;38.7793214;ET;Addis Ababa
Samoa;1966;;Samoa;40.8187372;-124.1864518;US;California
San Marino;1966;;City of San Marino;43.9363996;12.4466991;SM;
Saudi Arabia;1966;;Saudi Arabia Towers;27.1860382;31.19298082388167;EG;Asyut
Senegal;1966;1246908186.0;Senegal;5.8304643;36.6642147;ET;Southern Nations, Nationalities, and Peoples
Serbia;1966;;Σέρβια;40.1846282;21.9990312;GR;Epirus and Western Macedonia
Seychelles;1966;16443033.7;Seychelles;25.22444045;55.18297256651013;AE;Dubai
Sierra Leone;1966;375630252.1;Freetown;8.479004;-13.26795;SL;Western Area Urban
Singapore;1966;1096425608.1;Singapore;1.2899175;103.8519072;SG;
Solomon Islands;1966;;Solomon Islands;-7.9999999;158.9999999;SB;Isabel
Somalia;1966;257375897.0;Somalia;-13.180556;15.266667;AO;Huambo Province
South Africa;1966;14211394315.4;Jimmy Jones;-23.0379481;30.6493787;ZA;Limpopo
Spain;1966;28721062242.2;Santander;9.4170689;123.3351935;PH;Cebu
Sri Lanka;1966;1751470588.2;Sri Lanka;7.877395849999999;80.66247852355892;LK;
St. Lucia;1966;;Saint Lucia;13.90904385;-60.97792414113452;LC;Castries
St. Martin (French part);1966;;Saint Martin (France);18.0814066;-63.0467131;FR;Saint Martin (France)
Sudan;1966;1485344827.6;Sudan;10.9;6.5;NG;Kaduna State
Suriname;1966;190350000.0;Boven Suriname;3.91840165;-55.68355609257517;SR;
Sweden;1966;26971486546.3;Sweden;44.133435;-70.822678;US;Maine
Switzerland;1966;16480058704.9;Switzerland;55.0473993;24.2586917;LT;Kaunas County
Tajikistan;1966;;Tajikistan;37.3878883;68.6641057;TJ;Khatlon Region
Tanzania;1966;;Namanga;-2.5502402;36.7857028;TZ;Arusha
Thailand;1966;5279230817.3;Thailand;7.4931858;124.724704;PH;North Cotabato
Togo;1966;216136231.4;Togo;35.095364;137.042787;JP;
Tonga;1966;;Tonga;4.969409;10.699308;CM;West
Tunisia;1966;1040952381.0;Tunis;36.8002068;10.1857757;TN;Tunis
Turkiye;1966;14100000000.0;Turkey;25.22739495;55.16667799476122;AE;Dubai
Turkmenistan;1966;;"Türkmenistan;Туркменистан";40.4690217;62.2125775;TM;Lebap Region
Uganda;1966;925381492.4;Uganda;11.3163165;4.948482;NG;Niger State
Ukraine;1966;;Pechera;48.852417;28.722033;UA;Vinnytsia Oblast
United Arab Emirates;1966;;United Arab Emirates;25.22773555;55.174999621360726;AE;Dubai
United Kingdom;1966;108572752102.0;United Kingdom;25.22331675;55.15941464826079;AE;Dubai
United States;1966;815000000000.0;United States Minor Outlying Islands;16.7325005;-169.5282535;US;
Uruguay;1966;1805555555.6;Uruguay;-32.5049394;-53.5041115;UY;Cerro Largo
Uzbekistan;1966;;Tashkent;41.3123363;69.2787079;UZ;
Vanuatu;1966;;Vanuatu Abbatoir;-17.6873309;168.3049371;VU;Shefa Province
Viet Nam;1966;;Viet Nam;20.5996992;-76.3971143;CU;Holguín
Yemen, Rep.;1966;;Yaman;15.268007;42.583216;YE;Al Hudaydah Governorate
Zambia;1966;1264285714.3;Zambia;-10.9432722;14.1443449;AO;Cuanza Sul Province
Zimbabwe;1966;1281749500.0;Zimbabwe;4.7609886;-6.66608;CI;Bas-Sassandra
Afghanistan;1967;1673333417.8;Afghanistan;25.2333938;55.174389025091465;AE;Dubai
Albania;1967;;Albania;5.7587654;-73.9151617;CO;Santander
Algeria;1967;3370870376.3;Algiers;36.7753606;3.0601882;DZ;Algiers
Andorra;1967;;Andorra la Vella;42.5069391;1.5212467;AD;
Angola;1967;;Angola;41.634874;-84.99928;US;Indiana
Argentina;1967;;Argentina;27.0854542;-109.1412408;MX;Sonora
Armenia;1967;;Armenia;4.536307;-75.6723751;CO;Quindío
Aruba;1967;;Aruba;12.51756625;-69.98186415210564;NL;
Australia;1967;30442724870.8;Australia;-31.95260295;152.55512735272188;AU;New South Wales
Austria;1967;11579431668.9;Austria;25.22539605;55.16431379427327;AE;Dubai
Azerbaijan;1967;;Azerbaijan;25.23108035;55.17027266614927;AE;Dubai
Bahamas, The;1967;390196078.4;Lucayan Archipelago;26.6613931;-78.26835346979033;BS;
Bahrain;1967;;Bahrain Island;26.0280409;50.55316820508136;BH;Southern Governorate
Bangladesh;1967;7253575687.5;Bangladesh;-0.2864982;36.0514231;KE;Nakuru
Barbados;1967;;Barbados;13.1899463;-59.559215109754064;BB;
Belarus;1967;;Беларусь;54.3836054;30.4054004;BY;Vitsebsk Region
Belgium;1967;19992040788.5;Belgium;40.0620915;-87.6392353;US;Illinois
Belize;1967;47431255.7;Belize City;17.5000543;-88.2003115;BZ;Belize District
Benin;1967;306221953.1;Benin City;6.3330586;5.6221058;NG;Edo State
Bermuda;1967;155102980.1;Bermuda;32.3018217;-64.7603583;BM;
Bhutan;1967;;bhutan;33.0204804;75.6458366;IN;Jammu and Kashmir
Bolivia;1967;748250000.0;Bolivia;34.0676715;-78.1483283;US;North Carolina
Botswana;1967;58642354.1;Botswana;25.21468695;55.18137698902848;AE;Dubai
Brazil;1967;;Brazil;39.523652;-87.1250154;US;Indiana
Bulgaria;1967;;Bulgaria;44.1141209;12.32615;IT;Emilia-Romagna
Burkina Faso;1967;450753923.5;Family Savadogo;13.4329296;-1.9956277265699776;BF;
Cabo Verde;1967;;Cabo Verde;-21.4743338;-46.3964995;BR;Minas Gerais
Cambodia;1967;962857134.3;Cambodia Town;42.6379684;-71.3213616;US;Massachusetts
Canada;1967;65668655501.1;Cañada;38.6752399;-0.8099623;ES;Valencian Community
Cayman Islands;1967;;Cayman Islands;19.3298691;-81.17122907994889;KY;
Central African Republic;1967;163820513.6;Central African Republic;25.2183959;55.17523857621538;AE;Dubai
Chad;1967;449826322.6;chad;32.7600402;76.0706663;IN;Himachal Pradesh
Channel Islands;1967;;Channel Islands;33.96579515;-120.09189711105296;US;California
Chile;1967;7057478295.2;Chile;7.308692;-61.8478915;VE;Bolivar State
China;1967;72881364882.5;Guangzhou City;23.1301964;113.2592945;CN;Guangdong Province
Colombia;1967;5825170438.5;Colômbia;-20.1774291;-48.6872822;BR;São Paulo
Comoros;1967;;Cômoros;40.1132313;-8.2614827;PT;
Congo, Dem. Rep.;1967;;Congo;-4.3983689;15.403578174981702;CD;Kinshasa
Congo, Rep.;1967;237397428.1;Congo;-4.3983689;15.403578174981702;CD;Kinshasa
Costa Rica;1967;699456618.9;San José;9.9325427;-84.0795782;CR;
Cote d'Ivoire;1967;1082922725.8;Côte D'Ivoire;8.97205;17.6395833;TD;Mandoul
Cuba;1967;;Juba City;4.8459246;31.5959173;SS;Central Equatoria
Curacao;1967;;Curaçao;12.21339425;-69.0408499890865;NL;
Cyprus;1967;;Cyprus;35.129393050000004;33.22978295894309;CY;South Cyprus
Denmark;1967;13059064374.6;Town of Denmark;43.899871;-75.582504;US;New York
Djibouti;1967;;Djibouti;11.5936903;43.1472724;DJ;
Dominica;1967;;Dominica;15.4240429;-61.34185329351388;DM;Saint Joseph Parish
Ecuador;1967;2553595172.1;Ecuador;-3.48444;-80.2257543;EC;El Oro
Egypt, Arab Rep.;1967;5605484299.0;Egypt;-27.676714;152.0984108763645;AU;Queensland
El Salvador;1967;976200000.0;El Salvador;-26.2462114;-69.6259658;CL;Atacama Region
Eritrea;1967;;Barentu;15.1056714;37.5888782;ER;Gash-Barka
Estonia;1967;;Эстония;56.3984817;96.4987629;RU;Krasnoyarsk Krai
Eswatini;1967;74759970.1;Eswatini;25.2164748;55.18185799560048;AE;Dubai
Ethiopia;1967;;Bahir Dar City;11.591367600000002;37.39000433472914;ET;Amhara Region
Faroe Islands;1967;66225403.6;Faroe Islands;62.19850045;-6.817412433412175;FO;Eysturoy region
Fiji;1967;162625885.9;Fiji Island;44.55220515;-78.16900113841923;CA;Ontario
Finland;1967;9368954010.3;Finland;40.3843304;-75.4203885;US;Pennsylvania
France;1967;118972977486.2;France;46.2337295;5.3538775;FR;Auvergne-Rhône-Alpes
Gabon;1967;271543680.0;Gabon;14.1277147;122.912073;PH;Camarines Norte
Gambia, The;1967;46695007.0;Gambia;7.5290563;-11.9729409;SL;Bonthe District
Georgia;1967;;Georgia;44.72422295;-73.14704151731551;US;Vermont
Germany;1967;;Germany;31.4399019;-95.350778;US;Texas
Ghana;1967;1748837209.3;Ghana;21.5718877;77.48657152558205;IN;Maharashtra
Gibraltar;1967;;Gibraltar;36.140807;-5.3541295;GI;
Greece;1967;9275600800.4;Town of Greece;43.2097838;-77.6930602;US;New York
Greenland;1967;;Greenland;71.81717990000001;-40.42628783678519;GL;
Grenada;1967;;Granada;37.1734995;-3.5995337;ES;Andalusia
Guam;1967;;Guam;13.4501257;144.75755102972062;US;Guam
Guatemala;1967;1453500000.0;Guatemala City;14.6222328;-90.5185188;GT;Guatemala Department
Guinea;1967;;Guinea;5.15;-1.75;GH;Western Region
Guyana;1967;250176470.6;City of Georgetown;6.8137426;-58.1624465;GY;Demerara-Mahaica
Haiti;1967;369124199.7;Haiti;21.7670269;-78.0947805;CU;Camagüey
Honduras;1967;598100000.0;Honduras;18.1513986;-66.2080216;US;Puerto Rico
Hungary;1967;;Hungary;41.9767629;-72.7789842;US;Connecticut
Iceland;1967;621225962.2;Iceland;39.3733802;-120.029143;US;California
India;1967;50134942204.0;India;2.183333;33.683333;UG;Kapelebyong
Indonesia;1967;5667756627.9;Pulau Bali;-8.456018100000001;115.27038551191184;ID;Bali
Iran, Islamic Rep.;1967;7555383690.2;Tirur;27.3396747;56.9567463;IR;Hormozgan Province
Iraq;1967;;Masif;36.686291;41.994791;IQ;Nineveh Governorate
Ireland;1967;3343636773.4;Ireland;53.4152268;-7.96655398901418;IE;
Isle of Man;1967;;Isle of Man;54.23592075;-4.514766902315387;IM;
Israel;1967;4030000000.0;Nein;32.6307267;35.3488686;IL;North District
Italy;1967;81133120065.4;Italy;32.1840381;-96.8847194;US;Texas
Jamaica;1967;1148014310.8;Jamaica;40.7029134;-73.8006429;US;New York
Japan;1967;123781880217.6;Japan;40.9921996;-75.9078749;US;Pennsylvania
Jordan;1967;631679747.3;Jordan;44.6663146;-93.6261918;US;Minnesota
Kazakhstan;1967;;Aral;46.797985;61.661221;KZ;Kyzylorda Region
Kenya;1967;1232559507.0;Namanga;-2.5461733;36.7915635;KE;Kajiado County
Korea, Dem. People's Rep.;1967;;Korea;50.4837993;23.7590924;PL;Lublin Voivodeship
Korea, Rep.;1967;4855892445.8;Korea;50.4837993;23.7590924;PL;Lublin Voivodeship
Kosovo;1967;;Kosovo;42.6202038;21.1561827;XK;
Kuwait;1967;2441599023.4;Kuwait City;29.3796532;47.9734174;KW;Al Asimah
Lebanon;1967;;Lebanon;40.3429683;-76.4233816;US;Pennsylvania
Lesotho;1967;59261976.3;Lesotho;25.21481175;55.183041764491264;AE;Dubai
Liberia;1967;;Liberia;10.6333401;-85.4362722;CR;
Libya;1967;;Libya;25.22041215;55.17041701462804;AE;Dubai
Luxembourg;1967;974721762.5;Luxembourg;49.6112768;6.129799;LU;
Madagascar;1967;956436932.1;Madagascar;-18.77914875;46.71217161656727;MG;Province d’Antananarivo
Malawi;1967;;Malawi;-15.300392;34.701808;MW;Neno
Malaysia;1967;3188924677.1;Malaysia;25.23310645;55.1833741910576;AE;Dubai
Maldives;1967;;Reethi Rah;4.5145134;73.37029931463772;MV;Malé Atoll
Mali;1967;275494477.6;Malé;4.1779879;73.5107387;MV;
Malta;1967;;Malta;35.90221125;14.413771221238456;MT;Northern Region
Marshall Islands;1967;;Marshall Islands;8.9995549;168.0002575;;
Mauritania;1967;282615310.2;Mauritania;25.21534785;55.16782550577598;AE;Dubai
Mauritius;1967;;Piton;-20.0958533;57.6349749;MU;Rivière du Rempart District
Mexico;1967;26560000000.0;Mexico City;19.4326296;-99.1331785;MX;
Micronesia, Fed. Sts.;1967;;Micronesia;7.0;155.25;;
Moldova;1967;;Moldavia;46.9110939;27.2407723;RO;
Monaco;1967;;Monaco;43.7311424;7.4197576;MC;
Mongolia;1967;;Mongolia;43.9382593;-79.2235563;CA;Ontario
Montenegro;1967;;Montenegro;-29.6826112;-51.4687455;BR;Rio Grande do Sul
Morocco;1967;3046345314.4;Morocco;25.21643135;55.16539122632322;AE;Dubai
Mozambique;1967;;Mozambique;19.058889;-96.254167;MX;Veracruz
Myanmar;1967;420359035.9;Burma;25.2335648;55.17769106950793;AE;Dubai
Namibia;1967;;Namibia;25.21294965;55.179690756441246;AE;Dubai
Nauru;1967;;Nauru;-0.52832605;166.93091238321813;NR;Buada
Nepal;1967;841974025.5;Nepal;31.2496266;73.6632218;PK;Punjab
Netherlands;1967;25087562181.3;Netherlands;36.2993736;-89.7510062;US;Missouri
New Caledonia;1967;180036767.6;New Caledonia;33.0551363;-92.6676556;US;Arkansas
New Zealand;1967;5961418093.5;New Zealand;46.4099904;-62.313043;CA;Prince Edward Island
Nicaragua;1967;;Nicaragua;28.3929796;-109.9816718;MX;Sonora
Niger;1967;665586872.3;Niger;25.21715185;55.17065374295412;AE;Dubai
Nigeria;1967;5203237918.7;Nigeria;25.21490645;55.174787069501136;AE;Dubai
Norway;1967;9514496703.4;Norway;41.9027805;-91.9215691;US;Iowa
Oman;1967;107151832.5;Oman;22.17;58.0;OM;Ad Dakhiliyah Governorate
Pakistan;1967;7464510709.8;khuian;33.0281858;72.0575345;PK;Punjab
Palau;1967;;Palau-del-Vidre;42.5717989;2.9600905;FR;Occitania
Panama;1967;1034376400.0;Panama;8.9714493;-79.5341802;PA;Panamá
Papua New Guinea;1967;441728182.7;New Guinea;-5.522593049999999;142.08709052245882;PG;
Paraguay;1967;492674603.2;Asuncion;-25.2800459;-57.6343814;PY;
Peru;1967;;Peru;41.3272919;-89.1287636;US;Illinois
Philippines;1967;7724873935.1;Dapitan;8.6549449;123.4243754;PH;Zamboanga del Norte
Poland;1967;;Poland;41.024226;-80.614795;US;Ohio
Portugal;1967;5740241165.6;Portugal;-1.6292632;-45.2368151;BR;Maranhão
Puerto Rico;1967;3532700000.0;Puerto Rico;27.7865973;-15.7117774;ES;
Qatar;1967;;Qatar;39.1074426;47.5061085;IR;East Azerbaijan Province
Romania;1967;;Valeapai Caras-Severin;45.49288425;21.71999265492126;RO;
Rwanda;1967;159560018.0;Rwanda;8.9917947;38.7793214;ET;Addis Ababa
Samoa;1967;;Samoa;40.8187372;-124.1864518;US;California
San Marino;1967;;City of San Marino;43.9363996;12.4466991;SM;
Saudi Arabia;1967;;Saudi Arabia Towers;27.1860382;31.19298082388167;EG;Asyut
Senegal;1967;1246480766.0;Senegal;5.8304643;36.6642147;ET;Southern Nations, Nationalities, and Peoples
Serbia;1967;;Σέρβια;40.1846282;21.9990312;GR;Epirus and Western Macedonia
Seychelles;1967;16632032.1;Seychelles;25.22444045;55.18297256651013;AE;Dubai
Sierra Leone;1967;348895027.6;Freetown;8.479004;-13.26795;SL;Western Area Urban
Singapore;1967;1238035815.8;Singapore;1.2899175;103.8519072;SG;
Solomon Islands;1967;25203524.0;Solomon Islands;-7.9999999;158.9999999;SB;Isabel
Somalia;1967;271781886.8;Somalia;-13.180556;15.266667;AO;Huambo Province
South Africa;1967;15821393671.4;Jimmy Jones;-23.0379481;30.6493787;ZA;Limpopo
Spain;1967;31647119228.2;Santander;9.4170689;123.3351935;PH;Cebu
Sri Lanka;1967;1859465020.6;Sri Lanka;7.877395849999999;80.66247852355892;LK;
St. Lucia;1967;;Saint Lucia;13.90904385;-60.97792414113452;LC;Castries
St. Martin (French part);1967;;Saint Martin (France);18.0814066;-63.0467131;FR;Saint Martin (France)
Sudan;1967;1608333333.3;Sudan;10.9;6.5;NG;Kaduna State
Suriname;1967;220700000.0;Boven Suriname;3.91840165;-55.68355609257517;SR;
Sweden;1967;29275995674.7;Sweden;44.133435;-70.822678;US;Maine
Switzerland;1967;17740013179.3;Switzerland;55.0473993;24.2586917;LT;Kaunas County
Tajikistan;1967;;Tajikistan;37.3878883;68.6641057;TJ;Khatlon Region
Tanzania;1967;;Namanga;-2.5502402;36.7857028;TZ;Arusha
Thailand;1967;5638461442.3;Thailand;7.4931858;124.724704;PH;North Cotabato
Togo;1967;231706439.7;Togo;35.095364;137.042787;JP;
Tonga;1967;;Tonga;4.969409;10.699308;CM;West
Tunisia;1967;1085714285.7;Tunis;36.8002068;10.1857757;TN;Tunis
Turkiye;1967;15644444444.4;Turkey;25.22739495;55.16667799476122;AE;Dubai
Turkmenistan;1967;;"Türkmenistan;Туркменистан";40.4690217;62.2125775;TM;Lebap Region
Uganda;1967;967240655.2;Uganda;11.3163165;4.948482;NG;Niger State
Ukraine;1967;;Pechera;48.852417;28.722033;UA;Vinnytsia Oblast
United Arab Emirates;1967;;United Arab Emirates;25.22773555;55.174999621360726;AE;Dubai
United Kingdom;1967;113116888210.8;United Kingdom;25.22331675;55.15941464826079;AE;Dubai
United States;1967;861700000000.0;United States Minor Outlying Islands;16.7325005;-169.5282535;US;
Uruguay;1967;1597142857.1;Uruguay;-32.5049394;-53.5041115;UY;Cerro Largo
Uzbekistan;1967;;Tashkent;41.3123363;69.2787079;UZ;
Vanuatu;1967;;Vanuatu Abbatoir;-17.6873309;168.3049371;VU;Shefa Province
Viet Nam;1967;;Viet Nam;20.5996992;-76.3971143;CU;Holguín
Yemen, Rep.;1967;;Yaman;15.268007;42.583216;YE;Al Hudaydah Governorate
Zambia;1967;1368000000.0;Zambia;-10.9432722;14.1443449;AO;Cuanza Sul Province
Zimbabwe;1967;1397002000.0;Zimbabwe;4.7609886;-6.66608;CI;Bas-Sassandra
Afghanistan;1968;1373333366.7;Afghanistan;25.2333938;55.174389025091465;AE;Dubai
Albania;1968;;Albania;5.7587654;-73.9151617;CO;Santander
Algeria;1968;3852147026.8;Algiers;36.7753606;3.0601882;DZ;Algiers
Andorra;1968;;Andorra la Vella;42.5069391;1.5212467;AD;
Angola;1968;;Angola;41.634874;-84.99928;US;Indiana
Argentina;1968;;Argentina;27.0854542;-109.1412408;MX;Sonora
Armenia;1968;;Armenia;4.536307;-75.6723751;CO;Quindío
Aruba;1968;;Aruba;12.51756625;-69.98186415210564;NL;
Australia;1968;32714085234.3;Australia;-31.95260295;152.55512735272188;AU;New South Wales
Austria;1968;12440625312.9;Austria;25.22539605;55.16431379427327;AE;Dubai
Azerbaijan;1968;;Azerbaijan;25.23108035;55.17027266614927;AE;Dubai
Bahamas, The;1968;444901960.8;Lucayan Archipelago;26.6613931;-78.26835346979033;BS;
Bahrain;1968;;Bahrain Island;26.0280409;50.55316820508136;BH;Southern Governorate
Bangladesh;1968;7483685770.8;Bangladesh;-0.2864982;36.0514231;KE;Nakuru
Barbados;1968;;Barbados;13.1899463;-59.559215109754064;BB;
Belarus;1968;;Беларусь;54.3836054;30.4054004;BY;Vitsebsk Region
Belgium;1968;21376353113.5;Belgium;40.0620915;-87.6392353;US;Illinois
Belize;1968;44999910.0;Belize City;17.5000543;-88.2003115;BZ;Belize District
Benin;1968;326323105.3;Benin City;6.3330586;5.6221058;NG;Edo State
Bermuda;1968;150000000.0;Bermuda;32.3018217;-64.7603583;BM;
Bhutan;1968;;bhutan;33.0204804;75.6458366;IN;Jammu and Kashmir
Bolivia;1968;849333333.3;Bolivia;34.0676715;-78.1483283;US;North Carolina
Botswana;1968;66248441.4;Botswana;25.21468695;55.18137698902848;AE;Dubai
Brazil;1968;;Brazil;39.523652;-87.1250154;US;Indiana
Bulgaria;1968;;Bulgaria;44.1141209;12.32615;IT;Emilia-Romagna
Burkina Faso;1968;460442689.4;Family Savadogo;13.4329296;-1.9956277265699776;BF;
Cabo Verde;1968;;Cabo Verde;-21.4743338;-46.3964995;BR;Minas Gerais
Cambodia;1968;1065714248.6;Cambodia Town;42.6379684;-71.3213616;US;Massachusetts
Canada;1968;71829810519.9;Cañada;38.6752399;-0.8099623;ES;Valencian Community
Cayman Islands;1968;;Cayman Islands;19.3298691;-81.17122907994889;KY;
Central African Republic;1968;191767441.6;Central African Republic;25.2183959;55.17523857621538;AE;Dubai
Chad;1968;453980096.2;chad;32.7600402;76.0706663;IN;Himachal Pradesh
